Facility ID,Record ID,Serial Number,Service Desc.,PE,PE Desc,Category,Description,County,Agency,ProgramIdentifier,SiteAddress,City,St,Zip,GISLatitude,GISLongitude,ActivityDate,FC01,FC02,FC03,FC04,FC05,FC06,FC07,FC08,FC09,FC10,FC11,FC12,FC13,FC14,FC15,FC16,FC17,FC18,FC19,FC20,FC21,FC22,FC23,FC24,FC25,FC26,FC27,FC28,FC29,TotalFoodborneViolations,FC30,FC31,FC32,FC33,FC34,FC35,FC36,FC37,FC38,FC39,FC40,FC41,FC42,FC43,FC44,FC45,FC46,FC47,FC48,FC49,FC50,FC51,FC52,FC53,FC54,FC55,FC56,TotalRetailViolations
FA0009996,PR0011864,DAYR2RKBT,"Inspection, Routine","1,045",Restaurant (101 - 200 seats),Med Risk (3),Food - Restaurants,Arapahoe,Tri-County Health Department,Pisco Sour,14050 E Evans Ave,Aurora,CO,80014-1449,39.678723,-104.826084,1/31/2019,0,1,0,0,0,0,0,0,0,1,0,0,0,0,0,1,0,0,0,0,0,1,0,0,0,0,0,1,0,5,0,0,0,1,0,0,0,0,0,0,0,0,0,0,1,0,0,0,0,1,0,1,0,0,0,0,0,4
FA0011070,PR0012733,DANHOPAEL,"Inspection, Routine","1,007","Limited Food Service (convenience, other)",Low Risk (2),Food - Restaurants,Arapahoe,Tri-County Health Department,Starbucks Coffee,410 S Colorado Blvd,Glendale,CO,80246-1207,39.70898467,-104.9399,1/30/2020,0,0,0,0,0,0,0,0,0,1,0,0,0,0,0,0,0,0,0,0,0,0,0,0,0,0,0,0,0,1,0,0,0,0,0,0,0,0,0,0,0,0,0,0,0,0,0,0,0,0,0,1,0,0,0,0,0,1
FA0010971,PR0012573,DAFZVKMMB,"Inspection, Routine","1,007","Limited Food Service (convenience, other)",Low Risk (2),Food - Restaurants,Arapahoe,Tri-County Health Department,Glazed and Confuzed Donuts,4660 S Yosemite St,Greenwood Village,CO,80111-1227,39.63258333,-104.8846,11/4/2019,0,0,0,0,0,0,0,0,0,0,0,0,0,0,0,0,0,0,0,0,0,0,0,0,0,0,0,0,0,0,0,0,0,0,0,0,0,0,0,0,0,0,0,0,0,0,0,0,0,0,0,0,0,0,0,0,0,0
FA0008454,PR0011453,DAA6ICOWD,"Inspection, Routine","1,045",Restaurant (101 - 200 seats),Med Risk (3),Food - Restaurants,Arapahoe,Tri-County Health Department,Las Fajitas Mexican Restaurant,7450 S Gartrell Rd Unit B7,Aurora,CO,80016,39.581195,-104.7248,2/26/2020,0,0,0,0,0,0,0,0,0,0,0,0,0,0,1,0,0,0,0,0,0,1,0,0,0,0,0,0,0,2,0,0,0,0,0,0,0,0,1,0,0,0,0,0,0,0,0,0,0,0,0,0,0,0,0,0,0,1
FA0003507,PR0010770,DATCQ0VC0,"Inspection, Routine","1,025",Restaurant (0 - 100 seats),Med Risk (3),Food - Restaurants,Douglas,Tri-County Health Department,Zaika Indian,78 E Allen St Ste 108,Castle Rock,CO,80108,39.41241968,-104.8618,11/13/2019,1,0,0,0,0,0,0,0,0,1,0,0,0,0,1,0,0,0,0,0,0,0,1,0,0,0,0,0,0,4,0,0,0,1,0,0,0,1,0,0,0,0,1,1,1,0,0,1,0,0,0,0,0,0,0,1,0,7
FA0010794,PR0012294,DAPVP0EVJ,"Inspection, Routine","1,007","Limited Food Service (convenience, other)",Low Risk (2),Food - Grocery,Arapahoe,Tri-County Health Department,Small Cakes Cupcakery,5616 S Gibraltar Way Unit H,Centennial,CO,80015-5365,39.61425,-104.7562,7/2/2019,0,0,0,0,0,0,0,0,0,1,0,0,0,0,0,0,0,0,0,0,0,0,0,0,0,0,0,1,0,2,0,0,0,0,0,0,0,0,0,0,0,0,0,0,0,0,0,0,0,0,0,1,0,0,0,0,0,1
FA0009996,PR0011864,DAK7PEH1S,"Inspection, Routine","1,045",Restaurant (101 - 200 seats),Med Risk (3),Food - Restaurants,Arapahoe,Tri-County Health Department,Pisco Sour,14050 E Evans Ave,Aurora,CO,80014-1449,39.678723,-104.826084,9/4/2019,0,1,0,0,0,0,0,0,0,1,0,0,0,0,0,1,0,0,0,0,0,1,0,0,0,0,0,0,0,4,0,0,0,0,0,0,0,0,0,0,0,0,0,1,0,0,0,1,0,1,0,0,0,0,1,1,0,5
FA0008454,PR0011453,DAYUAVERU,"Inspection, Routine","1,045",Restaurant (101 - 200 seats),Med Risk (3),Food - Restaurants,Arapahoe,Tri-County Health Department,Las Fajitas Mexican Restaurant,7450 S Gartrell Rd Unit B7,Aurora,CO,80016,39.581195,-104.7248,2/25/2020,0,0,0,0,0,0,0,0,0,0,0,0,0,0,0,0,0,0,0,0,0,0,0,0,0,0,0,0,0,0,0,0,0,0,0,0,0,0,0,0,0,0,0,0,0,0,0,0,0,0,0,0,0,0,0,0,0,0
FA0002354,PR0012095,DA0JU6EXD,"Inspection, Routine","1,007","Limited Food Service (convenience, other)",Very Low Risk (1),Food - Grocery,Arapahoe,Tri-County Health Department,Sunshine Gas Station,3298 S Broadway,Englewood,CO,80113-2426,39.65719,-104.9872,4/10/2019,0,0,0,0,0,1,0,0,0,1,0,0,0,0,0,0,0,0,0,0,0,0,0,0,0,0,0,0,0,2,0,0,0,0,0,0,0,0,0,0,0,0,0,0,0,0,0,0,0,0,0,0,0,0,0,0,0,0
FA0005314,PR0001964,DA4PUIEGY,"Inspection, Routine","1,025",Restaurant (0 - 100 seats),Med Risk (3),Food - Restaurants,Douglas,Tri-County Health Department,Sodexo at Liberty Media,12300 Liberty Blvd,Englewood,CO,80112,39.55248,-104.8468,2/27/2020,0,0,0,0,0,0,0,0,0,0,0,0,0,0,0,0,0,0,0,0,0,0,0,0,1,0,0,0,0,1,0,0,0,0,0,0,0,0,0,0,0,0,0,0,0,0,0,0,0,0,0,0,0,0,0,0,0,0
FA0010900,PR0012457,DALT2EWW0,"Inspection, Routine","1,007","Limited Food Service (convenience, other)",Very Low Risk (1),Food - Restaurants,Arapahoe,Tri-County Health Department,Chuze Fitness - Englewood,200 W Belleview Ave,Englewood,CO,80110-6610,39.62294,-104.9902,10/18/2019,0,0,0,0,1,0,0,0,0,0,0,0,0,0,0,0,0,0,0,0,0,0,0,0,0,0,0,0,0,1,0,0,0,0,0,0,1,0,0,0,0,0,0,0,0,0,0,0,1,0,0,1,0,0,0,0,0,3
FA0010267,PR0011462,DA0GJEYHY,"Inspection, Routine","1,045",Restaurant (101 - 200 seats),Med Risk (3),Food - Restaurants,Douglas,Tri-County Health Department,Shake Shack,1509 Park Central Dr Ste 100,Highlands Ranch,CO,80129,39.554694,-105.007636,11/5/2019,0,0,0,0,0,0,0,0,0,0,0,0,0,0,0,0,0,0,0,0,0,0,0,0,0,0,0,0,0,0,0,0,0,0,0,0,0,0,0,0,0,0,0,0,0,0,0,0,1,0,0,0,0,0,0,0,0,1
FA0000818,PR0000822,DACQLEJZE,"Inspection, Routine","1,025",Restaurant (0 - 100 seats),Low Risk (2),Food - Restaurants,Arapahoe,Tri-County Health Department,Blackjack Pizza,9625 E Arapahoe Rd,Englewood,CO,80112,39.595147,-104.8768,2/26/2020,0,1,0,0,0,0,0,0,0,0,0,0,0,0,0,0,0,0,0,0,0,1,1,0,0,0,0,0,0,3,0,0,0,0,0,0,0,0,0,0,0,0,0,0,0,0,0,0,0,0,0,0,0,0,0,0,0,0
FA0007938,PR0007714,DAB6SVHA0,"Inspection, Routine","1,045",Restaurant (101 - 200 seats),Med Risk (3),Food - Restaurants,Douglas,Tri-County Health Department,FuNuGyz,17904 Cottonwood Dr,Parker,CO,80134,39.558064,-104.7808,2/26/2020,0,1,0,0,0,0,0,0,0,1,0,0,0,0,0,0,0,1,0,1,0,1,1,0,0,0,0,0,0,6,0,0,0,0,0,0,0,0,0,0,0,1,0,0,0,0,0,1,1,0,0,1,0,0,0,1,0,5
FA0007216,PR0012067,DAPQZIO7L,"Inspection, Routine","1,007","Limited Food Service (convenience, other)",Very Low Risk (1),Food - Restaurants,Arapahoe,Tri-County Health Department,Fracos,5302 S Federal Cir Unit A,Littleton,CO,80123,39.619875,-105.028,8/2/2019,1,0,0,0,0,1,0,1,1,0,0,0,0,0,0,0,0,0,0,0,0,0,0,0,0,0,0,0,0,4,0,0,0,0,0,0,0,0,1,0,0,0,0,0,0,0,0,0,1,0,0,1,0,1,0,1,0,5
FA0011106,PR0012807,DAFUTG3NR,"Inspection, Routine","1,007","Limited Food Service (convenience, other)",Low Risk (2),Food - Restaurants,Douglas,Tri-County Health Department,Springhill Suites Denver Parker,9355 Silverado Dr,Parker,CO,80134-6067,,,1/10/2020,0,0,0,0,0,0,0,0,0,0,0,0,0,0,0,0,0,0,0,0,0,0,0,0,0,0,0,0,0,0,0,0,0,0,0,0,0,0,0,0,0,0,0,0,0,0,0,0,0,0,0,0,0,0,0,0,0,0
FA0001223,PR0012598,DAPIYZ01R,"Inspection, First Operational","1,007","Limited Food Service (convenience, other)",Very Low Risk (1),Food - Grocery,Arapahoe,Tri-County Health Department,7 Star Food Mart,4690 S Yosemite St Unit B,Greenwood Village,CO,80111-1200,39.631768,-104.8846,9/26/2019,0,0,0,0,0,0,0,0,0,0,0,0,0,0,0,0,0,0,0,0,0,0,0,0,0,0,0,0,0,0,0,0,0,0,0,0,0,0,0,0,0,0,0,0,0,0,0,0,0,0,0,0,0,0,0,0,0,0
FA0005837,PR0004724,DAMK4JKSS,"Inspection, Routine","1,045",Restaurant (101 - 200 seats),Med Risk (3),Food - Restaurants,Arapahoe,Tri-County Health Department,Tokyo Joes,6380 S Fiddlers Green Cir Unit 108B,Greenwood Village,CO,80111,39.600566,-104.89,2/28/2020,0,0,0,0,0,0,0,1,0,1,0,0,0,0,0,0,0,0,0,0,0,0,0,0,0,0,0,0,0,2,0,0,0,0,0,0,0,0,0,0,0,0,0,0,0,0,0,1,0,0,0,0,0,0,0,0,0,1
FA0003507,PR0010770,DA0QCX0QQ,"Inspection, Routine","1,025",Restaurant (0 - 100 seats),Med Risk (3),Food - Restaurants,Douglas,Tri-County Health Department,Zaika Indian,78 E Allen St Ste 108,Castle Rock,CO,80108,39.41241968,-104.8618,1/22/2019,0,1,0,0,0,0,0,0,0,1,0,0,1,0,1,0,0,0,0,1,0,1,0,0,0,0,0,0,0,6,0,0,0,0,0,0,0,1,0,1,0,0,0,1,1,0,0,1,1,1,0,1,0,0,0,1,1,10
FA0010424,PR0011698,DAVE5PRZP,"Inspection, Routine","1,225","Grocery Store w/ Deli (0 - 15,000 sq. ft.)",Med Risk (3),Food - Grocery,Arapahoe,Tri-County Health Department,Compark Convenience,15305 Compark Blvd,Parker,CO,80112,,,2/28/2020,0,1,0,0,0,0,0,0,0,0,0,0,0,0,1,0,0,0,0,0,0,0,0,0,0,0,0,0,0,2,0,0,0,0,0,0,0,0,0,0,0,0,0,0,0,0,0,0,1,0,1,0,0,0,0,0,0,2
FA0008455,PR0008502,DAA05CGLU,"Inspection, Routine","1,025",Restaurant (0 - 100 seats),Med Risk (3),Food - Restaurants,Arapahoe,Tri-County Health Department,My Salad Chop,12201 E Arapahoe Rd Unit A1,Centennial,CO,80112,39.595076,-104.8467,2/26/2020,0,1,0,0,0,0,0,0,0,0,0,0,0,0,0,0,0,0,0,0,0,1,0,0,0,0,0,0,0,2,0,0,0,0,0,0,1,0,1,0,0,0,0,0,0,0,0,0,0,0,0,0,0,0,0,0,0,2
FA0009020,PR0012310,DABGQSH0E,"Inspection, Routine","1,007","Limited Food Service (convenience, other)",Very Low Risk (1),Food - Grocery,Arapahoe,Tri-County Health Department,Alley The,2420 W Main St Ste 110,Littleton,CO,80120-1938,39.61345,-105.0165,5/29/2019,0,0,0,0,0,0,0,0,0,0,0,0,0,0,0,0,0,0,0,0,0,0,0,0,0,0,0,0,0,0,0,0,0,0,0,0,0,0,0,0,0,0,0,0,0,0,0,0,0,0,0,0,0,0,0,0,0,0
FA0011262,PR0013095,DA2ZV5TRY,"Inspection, Routine","1,085","Grocery Store (0 - 15,000 sq. ft.)",Very Low Risk (1),Food - Grocery,Douglas,Tri-County Health Department,Crystal Valley Convenience Store,484 Crystal Valley Rd Unit 102,Castle Rock,CO,80104,,,8/31/2020,0,0,0,0,0,0,0,0,0,0,0,0,0,0,0,0,0,0,0,0,0,0,0,0,0,0,0,0,0,0,0,0,0,0,0,0,0,0,0,0,0,0,0,0,0,0,0,0,0,0,0,0,0,0,0,0,0,0
FA0010749,PR0012227,DA80WQZUW,"Inspection, Routine","1,007","Limited Food Service (convenience, other)",Low Risk (2),Food - Restaurants,Arapahoe,Tri-County Health Department,Social Bar and Lounge,3625 W Bowles Ave Unit 9,Littleton,CO,80123-2899,39.610379,-105.0362,6/3/2019,0,0,0,0,0,0,0,0,0,0,0,0,0,0,0,0,0,0,0,0,0,0,0,0,0,0,0,0,0,0,0,0,0,0,0,0,0,0,0,0,0,0,0,0,0,0,0,0,0,0,0,0,0,0,0,0,0,0
FA0011086,PR0012772,DA85Y1FLD,"Inspection, Routine","1,007","Limited Food Service (convenience, other)",Very Low Risk (1),Food - Restaurants,Arapahoe,Tri-County Health Department,Primal Axe House,3545 S Platte River Dr Unit M1,Sheridan,CO,80110-3308,39.652547,-105.0115,1/7/2020,0,0,0,0,0,0,0,0,0,0,0,0,0,0,0,0,0,0,0,0,0,0,0,0,0,0,0,0,0,0,0,0,0,0,0,0,1,0,0,0,0,0,0,0,0,0,0,0,0,0,0,0,0,0,0,0,0,1
FA0010809,PR0012321,DABZR7WK0,"Inspection, Routine","1,005","No fee license (K-12 schools, non-profit)",Med Risk (3),Food - Institutions,Adams,Tri-County Health Department,Adams County Head Start Kitchen,11860 Pecos St,Denver,CO,80234-2740,39.911133,-105.0035,5/6/2019,0,0,0,0,0,0,0,0,0,0,0,0,0,0,0,0,0,0,0,0,0,0,0,0,0,0,0,0,0,0,0,0,0,0,0,0,0,0,0,0,0,0,0,0,0,0,0,1,0,0,0,1,0,0,0,0,0,2
FA0011182,PR0012954,DAL1P1MQZ,"Inspection, Routine","1,225","Grocery Store w/ Deli (0 - 15,000 sq. ft.)",Med Risk (3),Food - Grocery,Douglas,Tri-County Health Department,Hissho Sushi at Target 2023,10001 Commons St,Lone Tree,CO,80124,39.535054,-104.8843,2/21/2020,0,0,0,0,0,0,0,0,0,0,0,0,0,0,0,0,0,0,0,0,0,0,0,0,0,0,0,0,0,0,0,0,0,0,0,0,0,0,0,0,0,0,0,0,0,0,0,0,0,0,0,0,0,0,0,0,0,0
FA0000057,PR0012072,DAC82LD3I,"Inspection, Routine","1,007","Limited Food Service (convenience, other)",Very Low Risk (1),Food - Grocery,Arapahoe,Tri-County Health Department,SM Marts LLC,250 E Dry Creek Rd Unit 201,Littleton,CO,80122,39.580577,-104.9853,9/26/2019,0,0,0,0,0,0,0,0,0,1,0,0,0,0,0,0,0,0,0,0,1,0,0,0,0,0,0,0,0,2,0,0,0,0,0,0,0,0,0,1,0,0,0,0,0,0,0,0,0,0,0,0,0,0,0,0,0,1
FA0001223,PR0012598,DA04MGKT1,"Inspection, Routine","1,007","Limited Food Service (convenience, other)",Very Low Risk (1),Food - Grocery,Arapahoe,Tri-County Health Department,7 Star Food Mart,4690 S Yosemite St Unit B,Greenwood Village,CO,80111-1200,39.631768,-104.8846,1/13/2020,0,0,0,0,0,0,0,0,0,1,0,0,1,0,0,1,0,0,0,0,0,0,0,0,0,0,0,0,0,3,0,0,0,0,0,0,0,0,0,0,0,0,0,0,0,0,0,0,0,0,0,0,0,0,0,0,0,0
FA0011046,PR0012690,DA2RETRBZ,"Inspection, Routine","1,065",Restaurant (>200 seats),Med Risk (3),Food - Restaurants,Arapahoe,Tri-County Health Department,Real de Minas III,15795 E Briarwood Cir,Aurora,CO,80016-1562,39.5936,-104.8034,2/28/2020,0,0,0,0,0,0,0,1,0,0,0,0,0,0,1,1,0,0,0,0,0,1,1,0,0,0,0,0,0,5,0,0,0,0,0,0,0,0,0,0,0,0,0,0,0,0,0,0,0,0,0,0,0,0,0,0,0,0
FA0003284,PR0012849,DAKBUH7GH,"Inspection, Routine","1,225","Grocery Store w/ Deli (0 - 15,000 sq. ft.)",Med Risk (3),Food - Grocery,Arapahoe,Tri-County Health Department,JFE Sushi KS100,4910 S Yosemite St,Greenwood Village,CO,80111-1383,39.626553,-104.8845,2/28/2020,0,0,0,0,0,0,0,0,0,0,0,0,0,0,0,0,0,0,0,0,0,0,0,0,0,0,0,0,0,0,0,0,0,0,0,0,0,0,0,0,0,0,0,0,0,0,0,0,0,0,0,0,0,0,0,0,0,0
FA0010097,PR0012112,DAA0NT7NV,"Inspection, Routine","1,007","Limited Food Service (convenience, other)",Very Low Risk (1),Food - Restaurants,Douglas,Tri-County Health Department,Donut House The,558 E Castle Pines Pkwy Unit B3,Castle Pines,CO,80108,39.47087,-104.8757,2/19/2020,0,1,0,0,0,0,0,0,0,1,0,0,0,0,0,0,0,0,0,0,0,0,0,0,0,0,0,0,0,2,0,0,0,0,0,0,0,0,0,0,0,0,0,0,0,0,0,0,0,0,0,0,0,1,0,1,1,3
FA0010809,PR0012321,DAVQ221LW,"Inspection, Routine","1,005","No fee license (K-12 schools, non-profit)",Med Risk (3),Food - Institutions,Adams,Tri-County Health Department,Adams County Head Start Kitchen,11860 Pecos St,Denver,CO,80234-2740,39.911133,-105.0035,11/22/2019,0,1,0,0,0,0,0,0,0,0,0,0,0,0,0,0,0,0,0,0,0,0,0,0,0,0,0,0,0,1,0,0,0,0,0,0,0,0,0,0,0,0,0,0,0,0,0,0,0,0,0,0,0,0,0,0,0,0
FA0000057,PR0012072,DAATTJ1UL,"Inspection, First Operational","1,007","Limited Food Service (convenience, other)",Very Low Risk (1),Food - Grocery,Arapahoe,Tri-County Health Department,SM Marts LLC,250 E Dry Creek Rd Unit 201,Littleton,CO,80122,39.580577,-104.9853,5/31/2019,0,0,0,0,1,0,0,1,0,1,0,0,0,0,0,0,0,0,0,0,0,0,0,0,0,0,0,0,0,3,0,0,0,0,0,0,1,0,0,0,0,0,0,0,0,0,0,0,1,0,0,0,0,0,0,0,0,2
FA0003507,PR0010770,DARQ8EMBR,"Inspection, Routine","1,025",Restaurant (0 - 100 seats),Med Risk (3),Food - Restaurants,Douglas,Tri-County Health Department,Zaika Indian,78 E Allen St Ste 108,Castle Rock,CO,80108,39.41241968,-104.8618,5/10/2019,0,0,0,0,0,0,0,0,0,1,0,0,0,0,1,0,0,0,0,0,0,0,1,0,0,0,0,0,0,3,0,0,0,1,0,1,1,0,0,1,0,1,0,1,0,1,0,1,0,1,0,0,0,0,0,1,0,10
FA0010681,PR0012135,DA0VEBSBC,"Inspection, Routine","1,007","Limited Food Service (convenience, other)",Very Low Risk (1),Food - Restaurants,Arapahoe,Tri-County Health Department,Profile by Sanford,8575 E Arapahoe Rd Unit G,Greenwood Village,CO,80112-1429,39.59634333,-104.8895,6/12/2019,0,0,0,0,0,0,0,0,0,0,0,0,0,0,0,0,0,0,0,0,0,0,0,0,0,0,0,0,0,0,0,0,0,0,0,0,0,0,0,0,0,0,0,0,0,0,0,0,0,0,0,0,0,0,0,0,0,0
FA0009002,PR0012850,DAZQEONQA,"Inspection, Routine","1,007","Limited Food Service (convenience, other)",Low Risk (2),Food - Restaurants,Arapahoe,Tri-County Health Department,Wafels and Dinges,8401 S Park Meadows Center Dr Unit 5576,Lone Tree,CO,80124-5128,39.562625,-104.8766,1/13/2020,0,0,0,0,0,0,0,1,0,0,0,0,0,0,0,1,0,0,0,0,0,0,0,0,0,0,0,1,0,3,0,0,0,0,0,0,0,0,0,0,0,0,0,0,0,0,0,0,1,0,0,0,0,0,0,0,0,1
FA0008007,PR0007796,DAFJSBKLB,"Inspection, Routine","1,025",Restaurant (0 - 100 seats),Med Risk (3),Food - Restaurants,Adams,Tri-County Health Department,Jersey Mikes Sub,12003 N Pecos St,Westminster,CO,80234,39.934956,-104.9124,2/28/2020,0,0,0,0,0,0,0,0,0,0,0,0,0,0,0,0,0,0,0,0,0,0,0,0,0,0,0,0,0,0,0,0,0,0,0,0,0,0,0,0,0,1,0,0,0,0,0,0,0,0,0,0,0,0,0,1,0,2
FA0000788,PR0006215,DABXXGIUT,"Inspection, Routine","1,025",Restaurant (0 - 100 seats),High Risk (4),Food - Restaurants,Adams,Tri-County Health Department,Bella Sera,45 N Main St Unit 6,Brighton,CO,80601,39.914139,-104.9994,2/27/2020,0,1,0,0,1,0,0,0,0,1,0,0,1,0,0,0,0,0,0,0,0,0,0,0,0,0,0,0,0,4,0,0,0,0,0,0,0,0,0,0,0,0,0,0,0,0,0,0,0,0,0,0,0,1,0,1,1,3
FA0011119,PR0012837,DAMXXVART,"Inspection, Routine","1,007","Limited Food Service (convenience, other)",Very Low Risk (1),Food - Restaurants,Arapahoe,Tri-County Health Department,Level Up Nutrition,3916 S Broadway,Englewood,CO,80113-4629,39.645407,-104.9872,2/5/2020,0,0,0,0,0,0,0,0,0,1,0,0,0,0,0,0,0,0,0,0,0,1,0,0,0,0,0,0,0,2,0,0,0,0,0,0,0,0,1,0,0,0,0,0,0,0,0,0,0,0,0,0,0,0,1,0,0,2
FA0010316,PR0011533,DA3UO33IC,"Inspection, Routine","1,085","Grocery Store w/ Deli (0 - 15,000 sq. ft.)",Med Risk (3),Food - Grocery,Arapahoe,Tri-County Health Department,Green Bazaar,5698 S Himalaya St Unit B/C,Centennial,CO,80015-5314,39.61257,-104.7539,2/13/2019,0,1,0,0,0,0,0,0,0,0,0,0,0,0,0,1,0,0,0,0,0,0,1,0,0,0,0,0,0,3,0,0,0,0,0,0,1,0,0,0,0,0,0,0,0,0,0,1,0,0,0,0,0,0,0,0,0,2
FA0010389,PR0011632,DADQC4WFI,"Inspection, Routine","1,025",Restaurant (0 - 100 seats),Med Risk (3),Food - Restaurants,Douglas,Tri-County Health Department,Del Taco 1237,6865 Promenade Pkwy,Castle Rock,CO,80109,,,1/7/2019,0,0,0,0,0,0,0,1,0,1,0,0,0,0,0,0,0,0,0,0,0,1,0,0,0,0,0,1,0,4,0,0,0,0,0,0,0,0,1,1,0,0,0,0,1,0,0,1,0,1,0,0,0,0,1,1,0,7
FA0011026,PR0012660,DA1YEDNLE,"Inspection, First Operational","1,007","Limited Food Service (convenience, other)",Very Low Risk (1),Food - Restaurants,Douglas,Tri-County Health Department,Quality Inn and Suites-Comfort Inn and Suites,10535 El Diente Ct,Englewood,CO,80112-2655,39.542516,-104.8676,10/7/2019,0,0,0,0,0,1,0,0,0,1,0,0,0,0,0,0,0,0,0,0,0,0,1,0,0,0,0,0,0,3,0,0,0,0,0,0,1,0,0,0,0,0,0,0,0,0,0,0,1,0,0,0,0,0,0,0,0,2
FA0004419,PR0012094,DA00IQEGP,"Inspection, Routine","1,025",Restaurant (0 - 100 seats),Low Risk (2),Food - Restaurants,Adams,Tri-County Health Department,Mendozas Juice and Ice Cream Bar,9265 Washington St,Thornton,CO,80229,39.986843,-104.8164,9/10/2019,0,1,0,0,0,0,0,0,0,1,0,0,1,0,0,1,0,0,1,0,0,0,1,0,0,0,0,1,0,7,0,0,0,0,0,0,0,0,0,0,0,0,0,1,0,1,0,1,0,1,0,0,0,0,0,0,1,5
FA0011105,PR0012804,DA80AL8YB,"Inspection, First Operational","1,025",Restaurant (0 - 100 seats),Med Risk (3),Food - Restaurants,Douglas,Tri-County Health Department,Burgerim,12231 Pine Bluffs Way Unit 109,Parker,CO,80134,39.504123,-104.7594,1/30/2020,0,0,0,0,0,0,0,0,0,0,0,0,1,0,0,1,0,0,0,0,0,0,0,0,1,0,0,0,0,3,0,0,0,0,0,0,0,0,0,0,0,1,0,0,0,0,0,0,0,0,0,0,0,0,0,0,0,1
FA0004704,PR0012433,DA0225791,"Inspection, Routine","1,007","Limited Food Service (convenience, other)",Low Risk (2),Food - Grocery,Arapahoe,Tri-County Health Department,Seven Eleven 27033A,5595 S Broadway,Littleton,CO,80121,39.615218,-104.988,9/24/2019,0,0,0,0,1,0,0,0,0,1,0,0,0,0,0,0,0,0,0,0,0,0,1,0,0,0,0,0,0,3,0,0,0,0,0,0,0,0,0,0,0,0,0,0,0,0,0,0,0,0,0,0,0,1,0,0,0,1
FA0007951,PR0007733,DAR2IMPHK,"Inspection, Routine","1,025",Restaurant (0 - 100 seats),Med Risk (3),Food - Restaurants,Arapahoe,Tri-County Health Department,Del Taco 1043,11155 E Arapahoe Pl,Centennial,CO,80112,39.595013,-104.8588,2/26/2020,0,0,0,0,0,0,0,0,0,1,0,0,0,0,0,0,0,0,0,0,0,1,0,0,0,0,0,0,0,2,0,0,0,1,0,0,0,0,1,0,0,0,0,1,0,0,0,1,0,1,0,0,0,0,0,0,1,6
FA0006180,PR0006041,DA9AIWY9C,"Inspection, Routine","1,225","Grocery Store (0 - 15,000 sq. ft.)",Med Risk (3),Food - Grocery,Arapahoe,Tri-County Health Department,Carniceria La Superior,1020 S Peoria St,Aurora,CO,80012,39.699608,-104.8471,2/13/2019,0,1,0,0,0,0,0,0,0,1,1,0,0,0,0,1,0,0,0,0,0,0,1,0,0,0,0,0,0,5,0,0,0,0,0,0,0,0,0,1,0,0,0,0,0,0,0,1,0,1,0,1,0,0,0,0,0,4
FA0004662,PR0011076,DABIGHQOJ,"Inspection, Routine","1,025",Restaurant (0 - 100 seats),Med Risk (3),Food - Restaurants,Arapahoe,Tri-County Health Department,Papa Johns Pizza 1052,5194 S Broadway,Englewood,CO,80113,39.622098,-104.9879,2/28/2020,0,1,0,0,0,0,0,0,0,1,0,0,1,0,0,0,0,0,0,0,0,0,0,0,0,0,0,0,0,3,0,0,0,0,0,0,0,0,0,0,0,0,0,0,0,0,0,0,0,0,0,0,0,0,0,0,0,0
FA0007395,PR0007076,DA6HY2X2F,"Inspection, Routine","1,007","Limited Food Service (convenience, other)",Low Risk (2),Food - Restaurants,Arapahoe,Tri-County Health Department,Starbucks Coffee 5573,15795 E Arapahoe Rd Ste 300,Centennial,CO,80016,39.595058,-104.8051,2/26/2020,0,0,0,0,0,0,0,0,0,0,0,0,0,0,0,1,0,0,0,0,0,0,0,0,0,0,0,0,0,1,0,0,0,0,0,0,0,0,0,0,0,0,0,0,0,0,0,0,0,0,0,0,0,0,0,0,0,0
FA0010618,PR0012047,DAT3B1U72,"Inspection, Routine","1,007","Limited Food Service (convenience, other)",Very Low Risk (1),Food - Restaurants,Arapahoe,Tri-County Health Department,Broadways Shot Spot,4011 S Broadway Unit 103,Englewood,CO,80113-4604,39.64368,-104.9881,3/29/2019,0,0,0,0,0,0,0,0,0,0,0,0,0,0,0,0,0,0,0,0,0,0,0,0,0,0,0,0,0,0,0,0,0,0,0,0,0,0,0,0,0,0,0,0,0,0,0,0,1,0,0,0,0,0,0,0,0,1
FA0011026,PR0012660,DAVESMAHS,"Inspection, Routine","1,007","Limited Food Service (convenience, other)",Very Low Risk (1),Food - Restaurants,Douglas,Tri-County Health Department,Quality Inn and Suites-Comfort Inn and Suites,10535 El Diente Ct,Englewood,CO,80112-2655,39.542516,-104.8676,2/13/2020,0,0,0,0,0,0,0,0,0,1,0,0,0,0,0,0,0,0,0,0,0,0,0,0,0,0,0,1,0,2,0,0,0,0,0,0,0,0,0,0,0,0,0,0,0,1,0,0,0,0,0,0,0,0,0,0,0,1
FA0005620,PR0001563,DAZP5YBAQ,"Inspection, Routine","1,065",Restaurant (>200 seats),Med Risk (3),Food - Restaurants,Douglas,Tri-County Health Department,Mimis Cafe,9155 Park Meadows Dr,Lone Tree,CO,80124,39.55568634,-104.8828,2/28/2020,0,0,0,0,0,1,0,0,0,1,0,0,0,0,1,0,0,0,0,0,0,1,0,0,0,0,0,1,0,5,0,0,0,1,0,0,0,0,0,0,0,0,0,0,0,0,0,1,0,1,0,1,0,0,0,1,1,6
FA0010316,PR0011533,DADNKPQIU,"Inspection, Routine","1,085","Grocery Store w/ Deli (0 - 15,000 sq. ft.)",Med Risk (3),Food - Grocery,Arapahoe,Tri-County Health Department,Green Bazaar,5698 S Himalaya St Unit B/C,Centennial,CO,80015-5314,39.61257,-104.7539,2/26/2020,0,0,0,0,1,0,0,0,0,0,0,0,1,0,0,0,0,0,0,0,0,0,0,0,0,0,0,0,0,2,0,0,0,0,0,0,0,1,1,0,0,0,0,0,0,0,0,0,0,0,0,1,0,0,0,1,0,4
FA0005105,PR0000660,DAGZF8HEX,"Inspection, Routine","1,225","Grocery Store w/ Deli (0 - 15,000 sq. ft.)",Med Risk (3),Food - Grocery,Adams,Tri-County Health Department,Sapp Brothers Convenience Store,7120 E 49th Ave,Commerce City,CO,80022,39.830956,-105.0262,1/17/2020,0,0,0,0,0,0,0,0,0,0,0,0,0,0,0,0,0,0,0,0,0,0,0,0,0,0,0,0,0,0,0,0,0,0,0,0,0,0,0,0,0,0,0,0,0,1,0,0,0,0,0,0,0,0,0,1,0,2
FA0004226,PR0009316,DAIBAWKGW,"Inspection, Routine","1,025",Restaurant (0 - 100 seats),Med Risk (3),Food - Restaurants,Arapahoe,Tri-County Health Department,Black Cow Deli II,600 S Cherry St Unit 25,Glendale,CO,80246,39.705333,-104.9334,2/27/2020,0,1,0,0,0,0,0,0,0,0,0,0,0,0,0,0,0,0,0,0,0,1,1,0,0,0,0,0,0,3,0,0,0,0,0,1,0,0,0,0,0,0,0,0,0,0,0,0,0,0,0,0,0,0,0,0,1,2
FA0004419,PR0012094,DA9PPR8N5,"Inspection, Routine","1,025",Restaurant (0 - 100 seats),Low Risk (2),Food - Restaurants,Adams,Tri-County Health Department,Mendozas Juice and Ice Cream Bar,9265 Washington St,Thornton,CO,80229,39.986843,-104.8164,4/15/2019,0,1,0,0,0,0,0,0,0,1,0,0,0,0,1,1,0,0,0,0,1,1,1,0,0,0,0,0,0,7,0,0,0,1,0,0,1,0,0,0,0,0,0,0,1,0,0,1,1,0,0,0,0,0,0,0,0,5
FA0009158,PR0009807,DA5EMMYKD,"Inspection, Routine","1,007","Limited Food Service (convenience, other)",Very Low Risk (1),Food - Restaurants,Douglas,Tri-County Health Department,Ella Bliss Beauty Bar,3624 E Highlands Ranch Pkwy,Highlands Ranch,CO,80126,39.54213,-104.9469,8/22/2019,0,0,0,0,0,0,0,0,0,0,0,0,0,0,0,0,0,0,0,0,0,0,1,0,0,0,0,0,0,1,0,0,0,0,0,0,0,0,0,0,0,0,0,0,0,0,0,0,1,0,0,0,0,0,0,0,0,1
FA0011062,PR0012719,DA0228377,"Inspection, First Operational","1,007","Limited Food Service (convenience, other)",Very Low Risk (1),Food - Restaurants,Arapahoe,Tri-County Health Department,Crumbl Arapahoe,8547 E Arapahoe Rd Unit C,Greenwood Village,CO,80112-1430,39.596322,-104.8915,12/16/2019,0,0,0,0,0,0,0,0,0,1,0,0,0,0,0,0,0,0,0,0,0,0,0,0,0,0,0,0,0,1,0,0,0,0,0,0,0,0,0,0,0,0,0,0,0,0,0,0,0,0,0,0,0,0,0,0,0,0
FA0004990,PR0012735,DA0226732,"Inspection, Routine","1,007","Limited Food Service (convenience, other)",Very Low Risk (1),Food - Grocery,Adams,Tri-County Health Department,American Convenience Store 2,11340 Huron St,Northglenn,CO,80234,39.903992,-104.9721,10/21/2019,0,0,0,0,0,0,0,0,0,0,0,0,0,0,0,0,0,0,0,0,1,0,0,0,0,0,0,0,0,1,0,0,0,0,0,0,0,0,0,0,0,0,0,0,0,0,0,0,0,0,0,1,0,0,0,0,0,1
FA0006239,PR0005118,DA0TGOGAC,"Inspection, Routine","1,265","Grocery Store w/ Deli (>15,000 sq. ft.)",Med Risk (3),Food - Grocery,Arapahoe,Tri-County Health Department,Walmart Market 3126,16746 E Smoky Hill Rd,Centennial,CO,80015,39.62648,-104.793,1/15/2020,0,0,0,0,0,0,0,0,0,1,0,0,1,0,0,1,0,0,0,0,0,0,0,0,0,0,0,0,0,3,0,0,0,0,0,0,0,0,0,0,0,0,0,0,0,0,0,0,0,0,0,1,0,0,0,0,0,1
FA0011077,PR0012757,DAZ7WNMVA,"Inspection, Routine","1,007","Limited Food Service (convenience, other)",Very Low Risk (1),Food - Restaurants,Adams,Tri-County Health Department,Starbucks Coffee 56826,12311 E 104th Ave,Commerce City,CO,80022,39.88573,-104.8442,11/21/2019,0,0,0,0,0,0,0,1,0,1,0,0,0,0,0,0,0,0,0,0,0,0,0,0,0,0,0,0,0,2,0,0,0,0,0,0,0,0,0,0,0,1,0,0,0,0,0,0,1,0,0,0,0,0,0,0,0,2
FA0002446,PR0012852,DAASPLAED,"Inspection, Routine","1,007","Limited Food Service (convenience, other)",Very Low Risk (1),Food - Restaurants,Arapahoe,Tri-County Health Department,Donut The,5270 E Arapahoe Rd Unit G8,Centennial,CO,80122-2388,39.594323,-104.9265,2/12/2020,0,0,0,0,0,0,0,0,0,0,0,0,0,0,0,1,0,0,0,0,0,0,0,0,0,0,0,0,0,1,0,0,0,0,0,0,0,0,0,0,0,1,0,1,0,0,0,0,1,0,0,0,0,0,0,0,0,3
FA0002937,PR0002972,DAT9NUCA2,"Inspection, Routine","1,225","Grocery Store w/ Deli (0 - 15,000 sq. ft.)",Med Risk (3),Food - Grocery,Adams,Tri-County Health Department,Carniceria Mexicana,9508 Montview Blvd,Aurora,CO,80010-2035,39.74714,-104.87725,2/27/2020,0,1,0,0,0,0,0,0,0,1,1,0,0,0,1,1,0,0,0,0,0,0,1,0,0,0,0,1,0,7,0,0,0,0,0,0,0,1,0,1,0,0,0,0,0,0,0,0,1,0,0,1,0,0,0,1,0,5
FA0011075,PR0012755,DAH1SV6MQ,"Inspection, Routine","1,007","Limited Food Service (convenience, other)",Low Risk (2),Food - Restaurants,Adams,Tri-County Health Department,Ziggis Thornton,14325 N Lincoln St,Thornton,CO,80023-9246,39.95583,-104.9853,12/10/2019,0,0,0,0,0,0,0,0,0,1,0,0,0,0,0,0,0,0,0,0,0,1,0,0,0,0,0,1,0,3,0,0,0,0,0,0,0,0,0,0,0,0,0,0,1,0,0,1,0,0,0,0,0,1,0,0,0,3
FA0004061,PR0000754,DABSUG4VP,"Inspection, Routine","1,025",Restaurant (0 - 100 seats),Med Risk (3),Food - Restaurants,Douglas,Tri-County Health Department,Meridian Golf Course,9742 S Meridian Blvd,Englewood,CO,80112,39.54177679,-104.8543,2/28/2020,0,1,0,0,0,1,0,0,0,0,0,0,1,0,0,1,0,0,0,0,0,0,0,0,0,0,0,1,0,5,0,0,0,0,0,0,0,0,0,0,0,0,0,1,0,0,0,0,1,1,0,0,0,0,0,0,0,3
FA0010540,PR0011920,DA4HDDDFZ,"Inspection, Routine","1,007","Limited Food Service (convenience, other)",Very Low Risk (1),Food - Restaurants,Arapahoe,Tri-County Health Department,Kids Wonder,7562 S University Blvd Ste GG,Centennial,CO,30122-3161,39.57899,-104.9591,2/22/2019,0,0,0,0,0,0,0,0,0,0,0,0,0,0,0,0,0,0,0,0,0,0,0,0,0,0,0,1,0,1,0,0,0,0,0,0,0,0,0,0,0,0,0,0,0,0,0,0,0,0,0,0,0,0,0,0,0,0
FA0008475,PR0009778,DAVK0S8JV,"Inspection, Routine","1,025",Restaurant (0 - 100 seats),Med Risk (3),Food - Restaurants,Arapahoe,Tri-County Health Department,5280 Bahn Mi and Grill,15473 E Hampden Ave Unit A,Aurora,CO,80013,39.65397644,-104.8076,2/11/2020,0,0,0,0,0,0,0,0,0,0,0,0,0,0,0,0,0,0,0,0,0,0,0,0,0,0,0,0,0,0,0,0,0,0,0,0,0,0,0,0,0,0,0,0,0,0,0,0,0,0,0,0,0,0,0,0,0,0
FA0004440,PR0004476,DAFNM8UED,"Inspection, Routine","1,025",Restaurant (0 - 100 seats),Med Risk (3),Food - Restaurants,Douglas,Tri-County Health Department,Waffle House 1598,222 Wolfensberger Rd,Castle Rock,CO,80109,39.38019266,-104.865,8/31/2020,0,0,0,0,0,0,0,0,0,1,0,0,0,0,0,1,0,0,0,0,0,0,0,0,0,0,0,0,0,2,0,0,0,0,0,0,0,0,0,0,0,0,0,0,0,0,0,0,0,0,0,1,0,0,0,0,0,1
FA0007216,PR0012067,DAB9GOZQS,"Inspection, First Operational","1,007","Limited Food Service (convenience, other)",Very Low Risk (1),Food - Restaurants,Arapahoe,Tri-County Health Department,Fracos,5302 S Federal Cir Unit A,Littleton,CO,80123,39.619875,-105.028,4/3/2019,0,0,0,0,0,0,0,0,0,1,0,0,0,0,0,0,0,0,0,0,0,0,1,0,0,0,0,1,0,3,0,0,0,0,0,0,0,0,0,0,0,0,0,0,0,0,0,0,0,0,0,0,0,0,0,0,0,0
FA0010546,PR0011930,DAXTCUZCD,"Inspection, Routine","1,007","Limited Food Service (convenience, other)",Low Risk (2),Food - Restaurants,Arapahoe,Tri-County Health Department,Springhill Suites,7900 E Peakview Ave,Greenwood Village,CO,80111-6916,39.59801,-104.8967,2/12/2019,0,0,0,0,0,0,0,0,0,0,0,0,0,0,0,1,0,0,0,0,0,0,0,0,0,0,0,0,0,1,0,0,0,0,0,0,0,0,0,0,0,0,0,0,0,0,0,0,0,0,0,0,0,0,0,0,0,0
FA0005234,PR0012366,DAF0IGBVW,"Inspection, Routine","1,007","Limited Food Service (convenience, other)",Very Low Risk (1),Food - Restaurants,Arapahoe,Tri-County Health Department,Sir Chocolate,6950 S Tucson Way Ste Q,Centennial,CO,80112-3944,39.590552,-104.8342,7/19/2019,0,0,0,0,0,0,0,0,0,0,0,0,0,0,0,1,0,0,0,0,0,0,0,0,0,0,0,0,0,1,0,0,0,0,0,0,0,1,0,0,0,0,0,0,0,0,0,0,1,0,0,0,0,0,0,0,0,2
FA0000301,PR0000413,DAFTNVNXN,"Inspection, Routine","1,005","No fee license (K-12 schools, non-profit)",Med Risk (3),Food - Institutions,Adams,Tri-County Health Department,FM Day Elementary SAT,1740 Jordan Dr,Denver,CO,80221,39.9128,-105.0392,1/15/2020,0,0,0,0,0,0,0,0,0,0,0,0,0,0,0,0,0,0,0,0,0,0,0,0,0,0,0,0,0,0,0,0,0,0,0,0,0,0,0,0,0,0,0,0,0,0,0,0,0,0,0,0,0,0,0,1,0,1
FA0010634,PR0012068,DA0218762,"Inspection, Routine","1,125","Grocery Store (0 - 15,000 sq. ft.)",Very Low Risk (1),Food - Grocery,Adams,Tri-County Health Department,Dollar Tree 04040,1201 E 120th St,Thornton,CO,80233,39.91629433,-104.9722,2/27/2019,0,0,0,0,0,0,0,0,0,0,0,0,0,0,0,0,0,0,0,0,0,0,0,0,0,0,0,0,0,0,0,0,0,0,0,0,0,0,0,0,0,0,0,0,0,0,0,0,0,0,0,0,0,0,0,0,0,0
FA0003932,PR0002178,DAA1FSRCO,"Inspection, Routine","1,045",Restaurant (101 - 200 seats),Med Risk (3),Food - Restaurants,Arapahoe,Tri-County Health Department,Rock Restaurant and Bar The,22934 E Smoky Hill Rd,Aurora,CO,80016,39.601412,-104.7211,2/27/2020,0,0,0,0,0,0,0,0,0,0,0,0,0,0,1,1,0,0,1,0,0,1,0,0,0,0,0,1,0,5,0,0,0,0,0,0,0,0,1,0,0,0,0,0,0,0,0,0,0,0,0,0,0,0,0,0,0,1
FA0007298,PR0006975,DAPKSSBNL,"Inspection, Routine","1,007","Limited Food Service (convenience, other)",Low Risk (2),Food - Restaurants,Adams,Tri-County Health Department,Jolet Coffee Factory,11505 E Colfax Ave,Aurora,CO,80010,39.740253,-104.8539,10/14/2019,0,0,0,0,0,1,0,0,0,1,0,0,0,0,0,0,0,0,0,0,0,1,1,0,0,0,0,1,0,5,0,0,0,0,0,0,0,0,1,0,0,0,0,1,0,0,0,1,1,0,0,1,0,0,0,0,0,5
FA0007267,PR0006940,DAGJATTYR,"Inspection, Routine","1,025",Restaurant (0 - 100 seats),Med Risk (3),Food - Restaurants,Adams,Tri-County Health Department,Noodles and Company 163,3824 E 120th Ave # B,Thornton,CO,80233,39.827297,-104.9363,3/4/2020,0,1,0,0,0,0,0,0,0,1,0,0,0,0,0,0,0,0,0,0,0,0,0,0,0,0,0,0,0,2,0,0,0,0,0,0,0,0,0,0,0,0,0,0,0,0,0,0,0,0,0,0,0,0,0,0,0,0
FA0002189,PR0000395,DA5RNPA0U,"Inspection, Routine","1,005","No fee license (K-12 schools, non-profit)",Med Risk (3),Food - Institutions,Douglas,Tri-County Health Department,Northeast Elementary,6598 N Highway 83,Parker,CO,80134,39.45807885,-104.7589,3/6/2020,0,0,0,0,0,0,0,0,0,1,0,0,0,0,0,0,0,0,0,0,0,0,0,0,0,0,0,0,0,1,0,0,0,0,0,0,0,0,0,0,0,0,0,0,0,0,0,0,0,0,0,1,0,0,0,0,0,1
FA0003415,PR0012958,DA8GZ6VOJ,"Inspection, Routine","1,025",Restaurant (0 - 100 seats),Low Risk (2),Food - Restaurants,Arapahoe,Tri-County Health Department,Fairfield Inn and Suites DTC South,7056 E County Line Rd,Highlands Ranch,CO,80126-3941,39.564957,-104.9077,3/4/2020,0,0,0,0,0,0,0,0,0,0,0,0,0,0,0,0,0,0,0,0,0,0,0,0,0,0,0,1,0,1,0,0,0,0,0,0,0,0,0,0,0,0,0,0,0,1,0,0,1,0,0,1,0,0,0,0,0,3
FA0006265,PR0002284,DAALGRA8J,"Inspection, Routine","1,225","Grocery Store w/ Deli (0 - 15,000 sq. ft.)",Med Risk (3),Food - Grocery,Adams,Tri-County Health Department,Carniceria Del Norte,2401 E 88th Ave Unit A,Thornton,CO,80229,39.856197,-104.9575,3/4/2020,0,0,0,0,0,0,0,0,0,0,0,0,0,0,0,0,0,0,0,1,0,0,1,0,0,0,0,0,0,2,0,0,0,0,0,0,0,1,0,0,0,0,0,0,0,0,0,0,0,0,0,0,0,0,0,0,0,1
FA0005710,PR0008351,DAEF0HZ6K,"Inspection, Routine","1,025",Restaurant (0 - 100 seats),Med Risk (3),Food - Restaurants,Douglas,Tri-County Health Department,Tasty House,804 N Ridge Rd Ste B,Castle Rock,CO,80104,39.37571259,-104.829,3/5/2020,0,0,0,0,0,1,0,0,0,1,0,0,0,0,1,0,0,0,0,0,0,1,0,0,0,0,0,0,0,4,0,0,0,1,0,0,0,0,0,0,0,1,0,0,0,0,0,0,0,1,0,1,0,0,0,0,0,4
FA0006404,PR0004297,DAQTE87TW,"Inspection, Routine","1,045",Restaurant (101 - 200 seats),Med Risk (3),Food - Restaurants,Arapahoe,Tri-County Health Department,Yannis,5425 Landmark Pl Unit D109,Greenwood Village,CO,80111,39.617782,-104.9009,1/9/2019,0,0,0,0,1,1,0,1,0,1,0,0,0,0,0,1,0,0,0,0,0,0,1,0,0,0,0,1,0,7,0,0,0,0,0,0,0,1,0,1,0,1,0,0,0,1,0,1,1,1,0,0,0,0,0,0,1,8
FA0008201,PR0008065,DALBPYUUA,"Inspection, Routine","1,025",Restaurant (0 - 100 seats),Med Risk (3),Food - Restaurants,Arapahoe,Tri-County Health Department,Dog Haus,12023 E Arapahoe Rd,Centennial,CO,80112,39.595168,-104.8496,3/6/2020,0,1,0,0,0,0,0,1,0,1,0,0,0,0,1,0,0,0,0,0,0,0,0,0,0,0,0,0,0,4,0,0,0,0,0,0,0,0,0,0,0,0,0,0,0,0,0,0,0,0,0,0,0,0,0,0,0,0
FA0007982,PR0007766,DAL0FHPJI,"Inspection, Routine","1,265","Grocery Store w/ Deli (>15,000 sq. ft.)",Med Risk (3),Food - Grocery,Arapahoe,Tri-County Health Department,King Soopers 107,25701 E Smoky Hill Rd,Aurora,CO,80016,39.586393,-104.6891,3/6/2020,0,0,0,0,0,0,0,0,0,0,0,0,0,0,0,0,0,0,0,0,0,0,0,0,0,0,0,0,0,0,0,0,0,0,0,0,0,0,0,0,0,0,0,0,0,0,0,0,0,0,0,0,0,0,0,0,0,0
FA0010683,PR0012140,DAZH75KD3,"Inspection, Routine","1,085","Grocery Store (0 - 15,000 sq. ft.)",Very Low Risk (1),Food - Grocery,Adams,Tri-County Health Department,La Poblanita,1830 W 92nd Ave,Federal Heights,CO,80260-5301,39.86311,-105.0092,3/11/2020,0,0,0,0,0,0,0,0,0,1,1,0,0,0,0,0,0,0,0,0,0,0,0,0,0,0,0,0,0,2,0,0,0,0,0,0,0,0,0,0,0,0,0,0,0,0,0,0,0,0,0,0,0,0,0,0,0,0
FA0010266,PR0011461,DARHU63KZ,"Inspection, Routine","1,065",Restaurant (>200 seats),Med Risk (3),Food - Restaurants,Adams,Tri-County Health Department,Sugarfire Smokehouse,14375 Orchard Pkwy,Westminster,CO,80023,39.956297,-104.9939,3/2/2020,0,0,0,0,0,0,0,0,0,1,0,0,1,0,0,0,0,0,0,0,1,1,1,0,0,0,0,0,0,5,0,0,0,0,0,0,0,0,0,0,0,0,0,1,0,0,0,0,0,1,0,0,0,0,0,0,0,2
FA0002547,PR0000284,DADXUQB0A,"Inspection, Routine","1,025",Restaurant (0 - 100 seats),Med Risk (3),Food - Restaurants,Arapahoe,Tri-County Health Department,Famous Wok,14200 E Alameda Ave Unit 2073,Aurora,CO,80012,39.711018,-104.8238,3/13/2020,0,1,0,0,0,0,0,0,0,1,0,0,1,0,1,0,0,0,0,1,0,1,0,1,0,0,0,1,0,8,0,0,0,0,0,0,0,0,0,1,0,1,0,0,0,0,0,0,0,1,0,0,0,0,0,0,0,3
FA0005588,PR0003271,DAZMSYJ6W,"Inspection, Routine","1,225","Grocery Store w/ Deli (0 - 15,000 sq. ft.)",Low Risk (2),Food - Grocery,Adams,Tri-County Health Department,Shell,9001 I-76 Service Rd,Henderson,CO,80640,39.859941,-104.9119,3/10/2020,0,0,0,0,0,0,0,0,0,0,0,0,0,0,0,0,0,0,0,0,1,1,0,0,0,0,0,0,0,2,0,0,0,0,0,0,0,0,0,0,0,0,0,0,0,0,0,0,0,0,0,0,0,0,0,0,0,0
FA0003460,PR0004272,DANLPI4WN,"Inspection, Routine","1,025",Restaurant (0 - 100 seats),Med Risk (3),Food - Restaurants,Adams,Tri-County Health Department,Keystone Place at Legacy Ridge,11180 Irving Dr,Westminster,CO,80031,39.912651,-104.9776,3/11/2020,0,0,0,0,0,0,0,0,0,1,0,0,0,0,0,0,0,0,0,0,0,0,0,0,0,0,0,0,0,1,0,0,0,0,0,1,1,0,0,0,0,0,1,0,0,0,0,0,1,0,0,1,0,0,0,0,0,5
FA0007491,PR0007180,DAPPF8OV0,"Inspection, Routine","1,007","Limited Food Service (convenience, other)",Very Low Risk (1),Food - Grocery,Arapahoe,Tri-County Health Department,Break Time Conoco,15015 E Hinsdale Dr,Centennial,CO,80112,39.58253,-104.8122,3/3/2020,0,0,0,0,0,0,0,0,0,0,1,0,0,0,0,0,0,0,0,0,0,0,0,0,0,0,0,0,0,1,0,0,0,0,0,0,0,0,0,0,0,0,0,0,0,0,0,0,0,0,0,0,0,0,0,0,0,0
FA0001232,PR0005094,DAPK1XDID,"Inspection, Routine","1,045",Restaurant (101 - 200 seats),Med Risk (3),Food - Restaurants,Douglas,Tri-County Health Department,Casa Caliente,8800 S Colorado Blvd Unit G,Highlands Ranch,CO,80126,39.55625018,-104.9419,3/6/2020,0,1,0,0,0,0,0,0,0,0,0,0,0,0,1,0,0,0,0,0,0,0,1,0,0,0,0,1,0,4,0,0,0,0,0,0,0,0,0,1,0,0,0,1,0,0,0,1,1,1,0,0,0,1,0,1,0,7
FA0004981,PR0004764,DADHJI015,"Inspection, Routine","1,045",Restaurant (101 - 200 seats),Med Risk (3),Food - Restaurants,Arapahoe,Tri-County Health Department,International House of Pancakes,800 Englewood Pkwy Unit A100,Englewood,CO,80110,39.654855,-104.9968,3/4/2020,0,0,0,0,0,0,0,0,0,1,0,0,0,0,0,0,0,0,0,0,1,0,0,0,0,0,0,0,0,2,0,0,0,0,0,0,0,0,0,0,0,1,0,0,0,0,0,1,1,0,0,1,0,0,0,1,0,5
FA0003102,PR0012999,DA0CP7NKM,"Inspection, Routine","1,025",Restaurant (0 - 100 seats),Med Risk (3),Food - Restaurants,Arapahoe,Tri-County Health Department,Ifka Cafe,1535 S Havana St Unit M,Aurora,CO,80012-5051,39.688826,-104.8672,3/11/2020,0,1,0,0,0,0,0,1,0,1,0,0,0,0,0,0,0,0,0,0,0,0,0,1,0,0,0,0,0,4,0,0,0,0,0,1,0,0,0,0,0,0,0,0,1,0,0,0,0,0,0,1,1,0,0,0,1,5
FA0006986,PR0012815,DAFMZOT4U,"Inspection, Routine","1,025",Restaurant (0 - 100 seats),Med Risk (3),Food - Restaurants,Adams,Tri-County Health Department,Dairy Queen Grill and Chill,3701 Tower Rd,Aurora,CO,80011-3521,39.767536,-104.7729,3/3/2020,0,0,0,0,0,0,0,1,0,0,0,0,0,0,0,0,0,0,0,0,0,0,0,0,0,0,0,0,0,1,0,0,0,0,0,0,0,0,1,0,0,0,0,0,0,1,0,0,0,0,0,0,0,0,0,0,0,2
FA0008222,PR0011450,DAOFBR09J,"Inspection, Routine","1,025",Restaurant (0 - 100 seats),Med Risk (3),Food - Restaurants,Arapahoe,Tri-County Health Department,Don Juans Mexican Grill,3625 W Bowles Ave Unit 16,Littleton,CO,80123,39.609792,-105.0349,3/3/2020,0,1,0,0,0,0,0,0,0,0,0,0,0,0,0,0,0,0,0,0,1,0,0,0,0,0,0,0,0,2,0,0,0,1,0,0,1,0,0,0,0,0,0,0,0,0,0,0,0,0,0,0,0,0,0,0,0,2
FA0010213,PR0011362,DA8PFSE9O,"Inspection, Routine","1,045",Restaurant (101 - 200 seats),Med Risk (3),Food - Restaurants,Arapahoe,Tri-County Health Department,Chilis,2070 E County Line Rd,Highlands Ranch,CO,80126,39.566056,-104.9609,3/4/2020,0,0,0,0,0,0,0,1,0,1,0,0,0,0,0,1,0,0,0,0,0,0,0,0,0,0,0,0,0,3,0,0,0,0,0,0,0,0,0,0,0,0,0,0,0,0,0,0,0,1,0,0,0,0,0,1,0,2
FA0007402,PR0007083,DAFJSUR6N,"Inspection, Routine","1,025",Restaurant (0 - 100 seats),Med Risk (3),Food - Restaurants,Douglas,Tri-County Health Department,Subway - Town center 23045,3506 Town Ctr,Highlands Ranch,CO,80129,39.54762267,-105.0344,3/9/2020,0,1,0,0,0,0,0,0,0,1,0,0,0,0,0,0,0,0,0,0,0,1,0,0,0,0,0,0,0,3,0,0,0,0,0,0,1,0,0,1,0,0,0,0,0,0,0,1,0,0,0,0,0,0,0,0,0,3
FA0008802,PR0011972,DAAGGWYNB,"Inspection, Routine","1,025",Restaurant (0 - 100 seats),Low Risk (2),Food - Restaurants,Arapahoe,Tri-County Health Department,Mr Donuts,1704 S Chambers Rd,Aurora,CO,80017,39.6855155,-104.8082,3/5/2020,0,0,0,0,0,0,0,0,0,0,0,0,0,0,0,0,0,0,0,0,0,0,0,0,0,0,0,0,0,0,0,0,0,0,0,0,1,0,0,0,0,1,0,0,0,0,0,0,1,0,0,0,0,0,0,0,0,3
FA0010298,PR0011509,DA0217150,"Inspection, Routine","1,225","Grocery Store w/ Deli (0 - 15,000 sq. ft.)",Low Risk (2),Food - Grocery,Adams,Tri-County Health Department,San Antonio Fresh Mexican Bakery and Juice Bar,9071 Washington St Unit G,Thornton,CO,80229-4355,39.86267,-104.9788,1/9/2019,0,0,0,0,0,0,0,0,0,1,0,0,0,0,0,0,0,0,0,0,0,0,0,0,0,0,0,0,0,1,0,0,0,0,0,0,0,0,0,0,0,0,0,0,1,0,0,0,0,0,0,0,0,0,0,0,0,1
FA0001139,PR0013031,DAYWBYFH7,"Inspection, Routine","1,025",Restaurant (0 - 100 seats),Med Risk (3),Food - Restaurants,Adams,Tri-County Health Department,Renegade Burrito,10005 Grant St Unit E,Thornton,CO,80229-2033,39.880803,-104.98414,3/9/2020,0,0,0,0,0,0,0,0,0,1,0,0,0,0,0,0,0,0,0,0,0,0,0,0,0,0,0,0,0,1,0,0,0,0,0,0,0,0,0,0,0,0,0,1,0,0,0,1,0,0,0,1,0,0,0,1,0,4
FA0004370,PR0012887,DAVMWHZM7,"Inspection, Routine","1,025",Restaurant (0 - 100 seats),Med Risk (3),Food - Restaurants,Arapahoe,Tri-County Health Department,Obok Zip,2720 S Havana St Ste H,Aurora,CO,80014-8607,39.666454,-104.8645,3/12/2020,0,1,0,0,0,0,0,0,0,0,0,0,0,0,0,0,0,0,0,0,0,0,0,0,0,0,0,1,0,2,0,0,0,0,0,0,0,0,0,1,0,0,0,0,0,0,0,1,1,0,0,0,0,0,0,0,0,3
FA0010461,PR0011768,DAPXRRSM5,"Inspection, Routine","1,025",Restaurant (0 - 100 seats),Med Risk (3),Food - Restaurants,Douglas,Tri-County Health Department,Code Poke,1601 Mayberry Dr Ste 103,Highlands Ranch,CO,80129,39.54602,-105.0042,3/2/2020,0,0,0,0,0,0,0,0,0,0,0,0,0,0,0,1,0,0,0,0,0,0,1,0,1,0,0,1,0,4,0,0,0,0,0,0,0,0,0,0,0,1,0,1,0,0,0,0,1,0,0,0,0,0,0,0,0,3
FA0005407,PR0000813,DAFHGGTOC,"Inspection, Routine","1,025",Restaurant (0 - 100 seats),Med Risk (3),Food - Restaurants,Arapahoe,Tri-County Health Department,Perfect Landing Restaurant,7625 S Peoria St,Englewood,CO,80112,39.578645,-104.8473,3/12/2020,0,0,0,0,0,0,0,1,1,0,0,0,0,1,1,1,0,0,0,1,0,1,0,0,0,0,0,0,0,7,0,0,0,0,0,1,0,0,0,0,0,0,0,0,0,0,0,0,0,0,0,0,0,0,0,0,0,1
FA0006320,PR0012833,DA5EGELWK,"Inspection, Routine","1,025",Restaurant (0 - 100 seats),Low Risk (2),Food - Restaurants,Adams,Tri-County Health Department,Krispy Kreme Doughnuts,1051 E 120th Ave,Thornton,CO,80233,39.812798,-104.9194,3/9/2020,0,0,0,0,0,0,0,0,0,1,0,0,0,0,0,1,0,0,0,0,0,0,0,0,0,0,0,0,0,2,0,0,0,0,0,0,0,0,0,0,0,0,0,0,0,0,0,0,0,0,0,0,0,0,0,1,0,1
FA0007194,PR0011808,DAJXYDVL2,"Inspection, Routine","1,025",Restaurant (0 - 100 seats),Med Risk (3),Food - Restaurants,Adams,Tri-County Health Department,Arbys 5009029,5130 W 92nd Ave,Westminster,CO,80031,39.859978,-104.9779,3/12/2020,0,0,0,0,1,0,0,0,0,0,0,0,0,0,0,0,0,0,0,0,0,0,0,0,0,0,0,0,0,1,0,0,0,0,0,0,0,0,0,0,0,0,0,0,0,0,0,0,0,1,0,1,0,0,0,1,0,3
FA0002394,PR0002064,DASSBUZDE,"Inspection, Routine","1,025",Restaurant (0 - 100 seats),Med Risk (3),Food - Restaurants,Arapahoe,Tri-County Health Department,Einstein Bros Bagels 2646,6650 S Yosemite St Unit 10501,Englewood,CO,80111,39.595703,-104.8888,3/5/2020,0,0,0,0,0,0,0,1,0,0,0,0,0,0,0,1,0,0,0,0,0,0,0,0,0,0,0,0,0,2,0,0,0,0,0,0,0,0,1,0,0,0,0,0,0,1,0,0,0,0,0,0,0,1,0,0,0,3
FA0010758,PR0012241,DAK76XLRB,"Inspection, Routine","1,085","Grocery Store (0 - 15,000 sq. ft.)",Very Low Risk (1),Food - Grocery,Arapahoe,Tri-County Health Department,Walgreens #10175,12011 E Iliff Ave,Aurora,CO,80014-1135,39.67515,-104.8479,3/2/2020,0,0,0,0,0,0,0,0,0,0,0,0,0,0,0,0,0,0,0,0,0,0,0,0,0,0,0,0,0,0,0,0,0,0,0,0,0,0,0,0,0,0,0,0,0,0,0,0,0,0,0,0,0,0,0,0,0,0
FA0011158,PR0012915,DATCUWYJT,"Inspection, Routine","1,045",Restaurant (101 - 200 seats),Med Risk (3),Food - Restaurants,Arapahoe,Tri-County Health Department,First Watch,2406 S Parker Rd Ste A,Aurora,CO,80231-4115,39.67307283,-104.8682,3/2/2020,0,0,0,0,0,0,0,0,0,1,0,0,0,0,0,0,0,0,0,0,0,0,0,0,0,0,0,1,0,2,0,0,0,0,0,0,0,0,0,0,0,0,0,0,1,0,0,0,0,0,0,0,0,0,0,0,0,1
FA0007400,PR0007081,DAZ7SWGY4,"Inspection, Routine","1,025",Restaurant (0 - 100 seats),Med Risk (3),Food - Restaurants,Douglas,Tri-County Health Department,Subway Wilcox 7840,110 S Wilcox St,Castle Rock,CO,80104,39.36793852,-104.8607,8/31/2020,0,0,0,0,0,0,0,0,0,1,0,0,0,0,0,0,0,0,0,0,0,1,0,0,0,0,0,0,0,2,0,0,0,0,0,0,0,0,1,0,0,0,0,0,0,0,0,0,0,1,0,0,0,0,0,0,0,2
FA0008766,PR0009059,DASCJQXG7,"Inspection, Routine","1,225","Grocery Store w/ Deli (0 - 15,000 sq. ft.)",Med Risk (3),Food - Grocery,Adams,Tri-County Health Department,Marys Pescaderia,3133 Peoria St Unit 203,Aurora,CO,80010,39.760361,-104.8469,3/3/2020,0,0,0,0,0,0,0,0,0,1,1,0,0,0,0,0,0,0,0,0,0,0,0,0,0,0,0,0,0,2,0,0,0,0,0,0,0,0,0,0,0,0,0,0,0,0,0,0,0,0,0,1,0,0,0,1,0,2
FA0010939,PR0012519,DAL9GJ54U,"Inspection, Routine","1,005","No fee license (K-12 schools, non-profit)",Med Risk (3),Food - Institutions,Arapahoe,Tri-County Health Department,Cherry Creek Innovation Campus-CCI Cafe,8000 S Chambers Rd,Centennial,CO,80112,39.571667,-104.8208,3/3/2020,0,0,0,0,0,0,0,0,0,0,0,0,0,0,0,0,0,0,0,0,0,0,0,0,0,0,0,0,0,0,0,0,0,0,0,0,0,0,0,0,0,0,0,0,0,0,0,0,0,0,0,0,0,0,0,0,0,0
FA0003653,PR0005566,DAQVY0GAQ,"Inspection, Routine","1,045",Restaurant (101 - 200 seats),Med Risk (3),Food - Restaurants,Arapahoe,Tri-County Health Department,Patxis Pizza,3455 S University Blvd Unit B,Englewood,CO,80113,39.653415,-104.9594,3/3/2020,0,1,0,0,1,0,0,0,0,0,0,0,0,0,0,1,0,0,0,0,0,0,1,0,0,0,0,0,0,4,0,0,0,0,0,0,0,0,0,0,0,0,0,0,0,0,0,1,0,1,0,0,0,0,0,1,0,3
FA0003214,PR0008387,DABUX8GBC,"Inspection, Routine","1,045",Restaurant (101 - 200 seats),Med Risk (3),Food - Restaurants,Arapahoe,Tri-County Health Department,Burger King,5697 S Himalaya St,Aurora,CO,80015,39.613178,-104.7545,3/6/2020,0,0,0,0,0,0,0,0,1,0,0,0,0,0,0,1,0,0,0,0,0,0,0,0,0,0,0,1,0,3,0,0,0,0,0,0,0,0,0,0,0,0,0,0,0,0,0,0,0,0,0,0,0,0,0,1,0,1
FA0007218,PR0012413,DAAODPVZY,"Inspection, First Operational","1,025",Restaurant (0 - 100 seats),Med Risk (3),Food - Restaurants,Arapahoe,Tri-County Health Department,Sugami Hibachi Express,15434 E Mississippi Ave,Aurora,CO,80017-3065,39.696076,-104.8078,3/5/2020,0,1,0,0,0,0,0,0,0,0,0,0,0,0,0,0,0,0,0,0,0,1,1,0,0,0,0,0,0,3,0,0,0,0,0,0,0,0,0,0,0,1,0,0,0,0,0,0,0,0,0,1,0,0,0,0,0,2
FA0008038,PR0007823,DA0MLHL03,"Inspection, Routine","1,025",Restaurant (0 - 100 seats),Med Risk (3),Food - Restaurants,Arapahoe,Tri-County Health Department,Tatas Burritos 2,5677 S Himalaya Way,Centennial,CO,80015,39.613131,-104.7545,3/10/2020,0,0,0,0,0,0,0,0,0,1,0,0,0,0,0,1,0,0,0,0,1,0,1,0,1,0,0,1,0,6,0,0,0,0,0,0,0,0,0,0,0,1,0,0,0,1,0,0,0,0,0,0,0,1,1,1,1,6
FA0006154,PR0001657,DANXC2JN4,"Inspection, Routine","1,025",Restaurant (0 - 100 seats),Med Risk (3),Food - Restaurants,Adams,Tri-County Health Department,Vietnamese Cafe,3744 E 104th Ave,Thornton,CO,80229,39.802021,-104.9076,3/2/2020,0,1,1,0,0,0,0,1,0,1,0,0,0,0,0,1,0,0,0,0,1,1,0,0,0,0,0,1,0,8,0,0,0,1,0,0,1,0,0,1,0,1,0,1,0,0,0,0,0,0,0,1,0,0,0,0,1,7
FA0002544,PR0004758,DAK5ALSSP,"Inspection, Routine","1,005","No fee license (K-12 schools, non-profit)",Med Risk (3),Food - Institutions,Arapahoe,Tri-County Health Department,Family Tree House of Hope,3301 S Grant St,Englewood,CO,80113,39.656731,-104.9841,3/9/2020,0,1,0,0,1,0,0,0,0,0,0,0,1,0,0,0,0,0,0,0,0,0,0,0,0,0,0,0,0,3,0,0,0,0,0,0,0,0,0,0,0,0,0,0,0,0,0,1,0,0,0,0,0,0,0,0,0,1
FA0007584,PR0009767,DAFSBWSXT,"Inspection, Routine","1,025",Restaurant (0 - 100 seats),Low Risk (2),Food - Restaurants,Adams,Tri-County Health Department,Subway,10401 Belle Creek Pkwy Unit F,Henderson,CO,80640,39.861465,-104.9621,3/10/2020,0,0,0,0,0,0,0,0,0,0,0,0,0,0,0,0,0,0,0,0,0,0,0,0,0,0,0,0,0,0,0,0,0,0,0,0,0,0,0,0,0,0,0,0,0,0,0,0,0,0,0,0,0,0,0,0,0,0
FA0002504,PR0004246,DA0T3S4SG,"Inspection, Routine","1,065",Restaurant (>200 seats),High Risk (4),Food - Restaurants,Douglas,Tri-County Health Department,Visa DPS,8910 Ridgeline Blvd,Littleton,CO,80129,39.55467625,-104.9964,3/13/2020,0,0,0,0,0,0,0,0,0,0,0,0,0,0,0,0,0,0,0,0,0,0,0,0,0,0,0,0,0,0,0,0,0,0,0,0,0,0,0,0,0,0,0,0,1,0,0,0,0,0,0,0,0,0,0,0,0,1
FA0010069,PR0011089,DAXT5AGCS,"Inspection, Routine","1,065",Restaurant (>200 seats),Med Risk (3),Food - Restaurants,Arapahoe,Tri-County Health Department,Lazy Dog Restaurant and Bar,24110 E State Ave,Aurora,CO,80016,,,3/9/2020,0,0,0,0,0,0,0,0,0,0,0,0,0,0,0,0,0,0,0,0,0,0,0,0,0,0,0,0,0,0,0,0,0,0,0,0,0,0,0,0,0,0,0,0,1,0,0,0,0,0,0,0,0,0,0,0,0,1
FA0003404,PR0004350,DAS2M5DSD,"Inspection, Routine","1,025",Restaurant (0 - 100 seats),Med Risk (3),Food - Restaurants,Arapahoe,Tri-County Health Department,Jus Grill Restaurant,17200 E Iliff Ave Unit A10,Aurora,CO,80013,39.673168,-104.7867,3/12/2020,0,0,0,0,0,0,0,1,0,1,0,0,0,0,0,1,0,0,0,1,0,1,1,0,1,0,0,1,0,8,0,0,0,0,0,0,0,0,1,1,0,0,1,0,0,0,0,0,0,0,0,0,0,0,1,0,0,4
FA0007127,PR0006794,DAYK3S0OM,"Inspection, Routine","1,007","Limited Food Service (convenience, other)",Low Risk (2),Food - Restaurants,Arapahoe,Tri-County Health Department,New York Bakery,10720 E Iliff Ave,Aurora,CO,80014,39.674709,-104.8635,3/10/2020,0,0,0,0,0,0,0,0,0,0,0,0,0,0,0,0,0,0,0,0,0,0,0,1,0,0,0,1,0,2,0,0,0,0,0,0,0,0,1,0,0,0,0,0,0,0,0,0,0,1,0,0,0,0,0,1,0,3
FA0008471,PR0008537,DAN4IA0QW,"Inspection, Routine","1,025",Restaurant (0 - 100 seats),Low Risk (2),Food - Restaurants,Adams,Tri-County Health Department,Dunkin Donuts 859,13591 N Huron St,Westminster,CO,80023,39.942635,-104.9969,3/4/2020,0,0,0,0,0,0,0,1,0,0,0,0,0,0,0,0,0,0,0,0,0,0,0,0,0,0,0,0,0,1,0,0,0,0,0,0,0,0,0,0,0,0,0,0,0,0,0,0,0,0,0,0,0,0,0,0,0,0
FA0000301,PR0000413,DAZYRZKFL,"Inspection, Routine","1,005","No fee license (K-12 schools, non-profit)",Med Risk (3),Food - Institutions,Adams,Tri-County Health Department,FM Day Elementary SAT,1740 Jordan Dr,Denver,CO,80221,39.9128,-105.0392,1/16/2019,0,0,0,0,0,0,0,0,0,0,0,0,0,0,0,0,0,0,0,0,0,0,0,0,0,0,0,0,0,0,0,0,0,0,0,0,0,0,0,0,0,0,0,0,0,0,0,0,0,0,0,0,0,0,0,1,0,1
FA0008004,PR0007793,DA3ZGQVPB,"Inspection, Routine","1,225","Limited Food Service (convenience, other)",Med Risk (3),Food - Grocery,Adams,Tri-County Health Department,Kum and Go,5480 E 120th Ave,Thornton,CO,80602,39.91346,-104.9235,3/4/2020,0,0,0,0,0,0,0,0,0,0,0,0,0,0,0,0,0,0,0,0,1,0,0,1,0,0,0,0,0,2,0,0,0,0,0,0,0,0,0,0,0,0,0,0,0,0,0,0,0,0,0,0,0,0,0,0,0,0
FA0007713,PR0007439,DANO0HIVL,"Inspection, Routine","1,025",Restaurant (0 - 100 seats),Med Risk (3),Food - Restaurants,Douglas,Tri-County Health Department,Jersey Mikes Subs,9400 Heritage Hills Cir Ste 300,Lone Tree,CO,80124,39.53752292,-104.88,3/6/2020,0,0,0,0,0,0,0,0,0,1,0,0,0,0,0,0,0,0,0,0,0,0,0,0,0,0,0,0,0,1,0,0,0,0,0,0,0,0,0,0,0,1,0,0,0,0,0,1,0,0,0,0,0,0,0,0,0,2
FA0005262,PR0008618,DADM0TJQZ,"Inspection, Routine","1,025",Restaurant (0 - 100 seats),Med Risk (3),Food - Restaurants,Adams,Tri-County Health Department,Smashburger,2690 W 104th Ave Unit 100,Federal Heights,CO,80234,39.791832,-105.0064,3/10/2020,0,0,0,0,0,0,0,0,0,1,0,0,0,0,0,0,0,0,0,0,0,0,0,0,0,0,0,0,0,1,0,0,0,0,0,0,0,0,0,0,0,0,0,0,1,0,0,0,0,0,1,1,0,0,0,0,0,3
FA0001918,PR0000304,DA4HGKW0E,"Inspection, Routine","1,045",Restaurant (101 - 200 seats),Med Risk (3),Food - Restaurants,Arapahoe,Tri-County Health Department,Mama Roma Pasta and Pizza,8100 S Quebec St Unit B16,Centennial,CO,80112,39.569562,-104.9043,3/6/2020,0,1,0,0,0,1,0,0,0,1,0,0,0,0,0,1,0,0,0,0,0,1,1,0,0,0,0,0,0,6,0,0,0,0,0,0,0,0,0,0,0,0,0,1,0,0,0,1,1,1,0,1,0,1,0,1,1,8
FA0006877,PR0006694,DAOILKTI7,"Inspection, Routine","1,005","No fee license (K-12 schools, non-profit)",Med Risk (3),Food - Institutions,Arapahoe,Tri-County Health Department,Littleton Preparatory Charter School,5301 S Bannock St,Littleton,CO,80120,39.619763,-104.9903,3/4/2020,0,0,0,0,0,0,0,0,0,0,0,0,0,0,0,0,0,0,0,0,0,0,0,0,0,0,0,1,0,1,0,0,0,0,0,0,0,0,0,0,0,0,0,0,0,0,0,0,0,0,0,0,0,0,0,0,0,0
FA0006934,PR0012863,DAB3C6KW1,"Inspection, Routine","1,007","Limited Food Service (convenience, other)",Low Risk (2),Food - Grocery,Arapahoe,Tri-County Health Department,Seven Eleven,18351 E Colfax Ave,Aurora,CO,80011-7914,39.74088,-104.7743,3/2/2020,0,0,0,0,0,0,0,0,0,1,0,0,0,0,0,1,0,0,0,0,1,0,0,0,0,0,0,0,0,3,0,0,0,0,0,0,0,0,0,0,0,0,0,0,0,0,0,0,0,0,0,0,0,0,0,0,0,0
FA0005938,PR0012920,DA4OVPXY3,"Inspection, Routine","1,045",Restaurant (101 - 200 seats),Med Risk (3),Food - Restaurants,Arapahoe,Tri-County Health Department,Molcajete,1911 S Havana St,Aurora,CO,80014-1011,39.681505,-104.867,3/5/2020,0,1,0,0,0,0,0,0,0,1,0,0,1,0,0,0,0,0,0,0,0,0,0,0,1,0,0,0,0,4,0,0,0,0,0,1,0,0,0,0,0,0,0,0,1,0,0,1,0,0,0,1,0,1,0,0,0,5
FA0007532,PR0007227,DADMYVJEC,"Inspection, Routine","1,025",Restaurant (0 - 100 seats),Med Risk (3),Food - Restaurants,Arapahoe,Tri-County Health Department,Three Little Griddles,6040 S Gun Club Rd F2,Aurora,CO,80016,39.605637,-104.7166,3/11/2020,0,0,0,0,0,0,0,0,0,1,0,0,0,0,0,0,0,0,0,0,0,0,0,0,0,0,0,0,0,1,0,0,0,0,0,0,0,0,0,1,0,1,0,0,0,0,0,0,0,0,0,0,0,0,0,0,0,2
FA0011033,PR0012671,DAOGCU8KT,"Inspection, Routine","1,225","Grocery Store w/ Deli (0 - 15,000 sq. ft.)",Med Risk (3),Food - Grocery,Arapahoe,Tri-County Health Department,Fujisan Sushi,880 S Abilene St,Aurora,CO,80012-3684,39.700743,-104.8256,3/6/2020,0,0,0,0,0,0,0,0,0,0,0,0,0,0,0,0,0,0,0,0,0,0,0,0,0,0,0,0,0,0,0,0,0,0,0,0,0,0,0,0,0,0,0,1,0,0,0,0,0,0,0,0,0,0,0,0,0,1
FA0005685,PR0004768,DAXFYXP0U,"Inspection, Routine","1,025",Restaurant (0 - 100 seats),Med Risk (3),Food - Restaurants,Adams,Tri-County Health Department,El Fogon Mexican Restaurant,621 W 84th Ave,Thornton,CO,80260,39.853054,-104.9779,3/2/2020,0,0,0,0,0,0,0,0,0,0,0,0,1,0,0,0,0,0,0,1,0,0,0,0,0,0,0,0,0,2,0,0,0,0,0,0,0,1,0,0,0,1,0,0,0,0,0,1,0,0,0,0,0,0,0,1,1,5
FA0002523,PR0011027,DATNPHD7Z,"Inspection, Routine","1,045",Restaurant (0 - 100 seats),Med Risk (3),Food - Restaurants,Adams,Tri-County Health Department,30/70 Sports Bar and Grill,1885 W 120th Ave Ste 1300,Westminster,CO,80234,39.827271,-104.9063,3/21/2019,0,1,0,0,1,0,0,1,0,1,0,0,1,0,1,1,0,0,1,0,0,0,1,0,1,0,0,1,0,11,0,0,0,0,0,0,0,0,0,0,0,1,0,0,0,0,0,0,1,0,0,0,0,1,0,0,1,4
FA0001472,PR0002153,DAPZ8ZTHR,"Inspection, Routine","1,025",Restaurant (0 - 100 seats),Med Risk (3),Food - Restaurants,Arapahoe,Tri-County Health Department,Chipotle Mexican Grill,12073 E Arapahoe Rd,Centennial,CO,80112,39.595169,-104.8486,3/2/2020,0,0,0,0,0,0,0,0,0,1,0,0,0,0,0,0,0,0,0,0,0,0,0,0,0,0,0,0,0,1,0,0,0,0,0,0,0,0,0,0,0,0,0,0,0,0,0,0,0,0,0,0,0,0,0,0,0,0
FA0002683,PR0003324,DABX01QJ9,"Inspection, Routine","1,025",Restaurant (0 - 100 seats),Med Risk (3),Food - Restaurants,Arapahoe,Tri-County Health Department,Taqueria Los Gordos,1034 S Sable Blvd,Aurora,CO,80012,39.697884,-104.8191,3/9/2020,0,0,0,0,0,0,0,0,0,1,0,0,0,0,0,0,0,0,0,0,0,0,1,0,0,0,0,1,0,3,0,0,0,0,0,0,0,0,0,1,0,0,0,0,0,0,0,0,0,0,0,0,0,1,0,0,0,2
FA0002497,PR0003402,DAHLRQRLQ,"Inspection, Routine","1,025",Restaurant (0 - 100 seats),Med Risk (3),Food - Restaurants,Adams,Tri-County Health Department,Stephanies Coffee Shop,7691 Brighton Blvd,Commerce City,CO,80022,39.86441,-104.9588,3/13/2020,0,0,0,0,0,0,0,0,0,0,0,0,0,0,0,1,0,0,0,0,0,0,1,0,0,0,0,0,0,2,0,0,0,0,0,0,0,0,0,1,0,0,0,0,0,0,0,1,0,0,0,0,0,0,0,1,0,3
FA0008599,PR0008803,DA2PVSHTW,"Inspection, Routine","1,025",Restaurant (0 - 100 seats),Low Risk (2),Food - Restaurants,Adams,Tri-County Health Department,Jimmy Johns No 2707,14315 Orchard Pkwy,Westminster,CO,80234-3797,39.954436,-104.9939,3/3/2020,0,0,1,0,1,0,0,0,0,1,0,0,0,0,0,0,0,0,0,0,0,0,0,0,0,0,0,0,0,3,0,0,0,0,0,0,0,0,0,0,0,0,0,0,0,0,0,0,0,0,0,0,0,0,0,0,0,0
FA0000696,PR0010759,DAMAVZ00P,"Inspection, Routine","1,045",Restaurant (101 - 200 seats),Med Risk (3),Food - Restaurants,Adams,Tri-County Health Department,Mamas Cafe,6025 E Parkway Dr Ste 160,Commerce City,CO,80022,39.915802,-104.8185,3/11/2020,0,1,0,0,0,0,0,0,0,1,0,0,0,0,1,0,0,0,0,0,0,1,1,0,0,0,0,1,0,6,0,0,0,0,0,1,0,0,0,1,0,1,0,1,1,0,0,1,0,1,0,1,0,0,0,0,0,8
FA0009953,PR0010853,DA3DLSSNB,"Inspection, Routine","1,225","Grocery Store w/ Deli (0 - 15,000 sq. ft.)",Low Risk (2),Food - Grocery,Adams,Tri-County Health Department,Maverik,11160 E Colorado Blvd,Thornton,CO,80233,39.898968,-104.9402,3/6/2020,0,0,0,0,0,0,0,0,0,0,0,0,0,0,0,0,0,0,0,0,0,0,0,0,0,0,0,0,0,0,0,0,0,0,0,0,0,0,0,0,0,0,0,0,0,0,0,0,0,0,0,0,0,0,0,0,0,0
FA0000593,PR0000424,DAN87YRHU,"Inspection, Routine","1,005","No fee license (K-12 schools, non-profit)",Med Risk (3),Food - Institutions,Arapahoe,Tri-County Health Department,Vassar Elementary,18101 E Vassar Pl,Aurora,CO,80013,39.668381,-104.778,3/2/2020,0,0,0,0,0,0,0,0,0,0,0,0,0,0,0,0,0,0,0,0,0,0,0,0,0,0,0,0,0,0,0,0,0,0,0,0,0,0,0,0,0,0,0,0,0,0,0,0,0,0,0,0,0,0,0,0,0,0
FA0005347,PR0003002,DARTRK7EJ,"Inspection, Routine","1,045",Restaurant (101 - 200 seats),Med Risk (3),Food - Restaurants,Douglas,Tri-County Health Department,South Garden III,12919 Stroh Ranch Ct Unit A,Parker,CO,80134,39.48123852,-104.7608,3/3/2020,0,0,0,0,0,0,0,0,0,0,0,0,1,0,1,0,0,0,0,0,0,0,1,0,0,0,0,1,0,4,0,0,0,0,0,0,0,0,0,0,0,1,0,0,0,0,0,0,0,1,0,0,0,1,0,0,1,4
FA0010498,PR0011823,DA1FODUZI,"Inspection, Routine","1,025",Restaurant (0 - 100 seats),Low Risk (2),Food - Institutions,Arapahoe,Tri-County Health Department,Raleigh House of Hope,325 Almstead Rd,Watkins,CO,80137-8931,39.70842,-104.5718,3/11/2020,0,0,0,0,0,0,0,0,0,1,0,0,1,0,0,0,0,0,0,0,0,0,0,0,0,0,0,0,0,2,0,1,0,0,0,0,1,0,0,0,0,1,0,0,1,0,0,0,0,0,0,1,0,0,0,0,0,5
FA0008576,PR0009688,DAYQLA1UJ,"Inspection, Routine","1,025",Restaurant (0 - 100 seats),Med Risk (3),Food - Restaurants,Arapahoe,Tri-County Health Department,Papa Murphys Pizza CO 106,1180 S Buckley Rd Unit C,Aurora,CO,80017-5149,39.69565201,-104.7893,3/9/2020,0,0,0,0,0,1,0,0,0,0,0,0,1,0,0,0,0,0,0,0,0,0,0,0,0,0,0,0,0,2,0,0,0,0,0,0,1,0,1,1,0,0,0,0,0,0,0,0,0,0,0,0,0,1,0,0,0,4
FA0000203,PR0000329,DAEGFG6ZP,"Inspection, Routine","1,005","No fee license (K-12 schools, non-profit)",Med Risk (3),Food - Institutions,Adams,Tri-County Health Department,Thornton High School,9351 Washington St,Thornton,CO,80229,39.986729,-104.7916,3/13/2020,0,0,0,0,0,0,0,0,0,0,0,0,0,0,0,0,0,0,0,0,0,0,0,0,0,0,0,0,0,0,0,0,0,0,0,0,0,0,0,0,0,0,0,0,0,0,0,0,0,0,0,0,0,0,0,0,0,0
FA0008627,PR0008843,DAMS0UD2Y,"Inspection, Routine","1,045",Restaurant (101 - 200 seats),High Risk (4),Food - Restaurants,Adams,Tri-County Health Department,Costa Vida,14316 Orchard Pkwy Ste 100,Westminster,CO,80023,39.95721351,-104.9936,3/9/2020,0,0,0,0,0,0,0,1,0,0,0,0,1,0,0,1,0,0,0,1,0,0,0,0,0,0,0,0,0,4,0,0,0,0,0,1,0,0,0,0,0,0,1,0,0,1,0,0,0,0,0,0,0,0,0,0,0,3
FA0003115,PR0003874,DAWE0T04O,"Inspection, Routine","1,025",Restaurant (0 - 100 seats),Med Risk (3),Food - Restaurants,Arapahoe,Tri-County Health Department,Rosies Diner,14061 E Iliff Ave,Aurora,CO,80014,39.674976,-104.8244,3/9/2020,0,0,0,0,0,0,0,0,0,1,0,0,0,0,1,0,0,0,0,0,1,1,0,0,0,0,0,1,0,5,0,0,0,0,0,0,1,0,0,1,0,1,0,1,1,0,0,0,0,0,0,0,0,0,0,0,0,5
FA0007592,PR0007301,DAZAHMULM,"Inspection, Routine","1,025",Restaurant (0 - 100 seats),Med Risk (3),Food - Restaurants,Arapahoe,Tri-County Health Department,Royal Hilltop,18581 E Hampden Ave Unit 134,Aurora,CO,80013,39.65316,-104.7715,3/5/2020,0,0,0,0,0,0,0,1,0,1,0,0,0,0,0,1,0,0,0,0,0,0,1,0,1,0,0,0,0,5,0,0,0,0,0,1,0,0,0,0,0,0,0,0,0,0,0,1,0,1,0,0,0,0,0,0,0,3
FA0008911,PR0012673,DAAYGT5R7,"Inspection, Routine","1,225","Grocery Store w/ Deli (0 - 15,000 sq. ft.)",Med Risk (3),Food - Grocery,Arapahoe,Tri-County Health Department,El Jakalito Market 2,12203 E Iliff Ave Ste F,Aurora,CO,80014-5314,39.675975,-104.8457,3/4/2020,0,1,0,0,0,0,0,1,0,1,0,0,1,0,1,1,0,0,0,0,0,1,1,0,0,0,0,1,0,9,0,0,0,0,0,0,0,1,1,0,0,0,0,0,0,0,0,1,1,0,0,1,0,0,0,1,0,6
FA0000742,PR0011815,DAW6YWEFK,"Inspection, Routine","1,025",Restaurant (0 - 100 seats),Med Risk (3),Food - Restaurants,Arapahoe,Tri-County Health Department,Bakers Way,8181 E Arapahoe Rd Unit C,Englewood,CO,80112-1378,39.595147,-104.8931,3/2/2020,0,1,0,0,0,0,0,0,0,0,0,0,0,0,1,0,0,0,0,0,0,1,0,0,0,0,0,1,0,4,0,0,0,0,0,0,1,0,0,0,0,0,0,0,0,0,0,0,0,0,0,0,0,0,0,1,0,2
FA0005805,PR0003820,DA27EOXKE,"Inspection, Routine","1,025",Restaurant (0 - 100 seats),Low Risk (2),Food - Restaurants,Arapahoe,Tri-County Health Department,Dominos Pizza 6217,15281 E Mississippi Ave,Aurora,CO,80012,39.696735,-104.8103,3/13/2020,0,0,0,0,0,0,0,0,0,1,0,0,0,0,0,0,0,0,0,0,0,0,0,0,0,0,0,0,0,1,0,0,0,0,0,0,1,0,0,0,0,0,0,0,0,0,0,0,0,0,0,0,0,0,0,0,0,1
FA0002085,PR0001460,DA6PV0OQ3,"Inspection, Routine","1,265","Grocery Store w/ Deli (>15,000 sq. ft.)",Med Risk (3),Food - Grocery,Adams,Tri-County Health Department,King Soopers 62 and Coffee Shop,10351 Federal Blvd,Westminster,CO,80030,39.885338,-104.8074,3/3/2020,0,0,0,0,0,0,0,0,0,0,0,0,0,0,0,0,0,0,0,0,0,0,0,0,0,0,0,0,0,0,0,0,0,0,0,0,0,0,0,1,0,0,0,0,0,0,0,1,0,0,0,1,0,0,0,0,1,4
FA0005840,PR0004312,DAAGMIFYN,"Inspection, Routine","1,045",Restaurant (101 - 200 seats),Med Risk (3),Food - Restaurants,Arapahoe,Tri-County Health Department,Tokyo Joes,6879 S Vine St Ste B7,Centennial,CO,80122,39.591834,-104.9642,3/9/2020,0,0,0,0,0,0,0,0,0,1,0,0,0,0,0,0,0,0,0,0,0,0,1,0,0,0,0,0,0,2,0,0,0,0,0,0,0,0,0,0,0,1,0,0,0,0,0,1,0,0,0,0,0,0,0,1,0,3
FA0010053,PR0011052,DA9X8F6H4,"Inspection, Routine","1,005","No fee license (K-12 schools, non-profit)",Low Risk (2),Food - Institutions,Douglas,Tri-County Health Department,Parker Schoolhouse at Mainstreet,19650 E Mainstreet,Parker,CO,80138,39.518103,-104.76,3/13/2020,0,0,0,0,0,0,0,0,0,0,0,0,0,0,0,0,0,0,0,0,0,0,0,0,0,0,0,0,0,0,0,0,0,0,0,0,0,0,0,0,0,0,0,0,0,0,0,0,0,0,0,0,0,0,0,0,0,0
FA0003687,PR0003981,DACHEIMHT,"Inspection, Routine","1,025",Restaurant (0 - 100 seats),Med Risk (3),Food - Restaurants,Arapahoe,Tri-County Health Department,McDonalds,9400 E Hampden Ave,Aurora,CO,80231,39.653032,-104.8785,3/9/2020,0,0,0,0,0,0,0,0,0,0,0,0,0,0,0,0,0,0,0,0,0,0,0,0,0,0,0,0,0,0,0,0,0,0,0,0,0,0,0,0,0,0,0,0,0,0,0,0,0,0,0,1,0,0,0,0,0,1
FA0001337,PR0000303,DA7WAH4JQ,"Inspection, Routine","1,005","No fee license (K-12 schools, non-profit)",Med Risk (3),Food - Institutions,Arapahoe,Tri-County Health Department,Aspen Crossing Elementary,4655 S Himalaya St,Aurora,CO,80015,39.631512,-104.7526,3/9/2020,0,0,0,0,0,0,0,0,0,0,0,0,0,0,0,0,0,0,0,0,0,0,0,0,0,0,0,0,0,0,0,0,0,0,0,0,0,0,0,0,0,0,0,0,0,0,0,0,0,0,0,0,0,0,0,0,0,0
FA0010669,PR0012121,DAUDNAG4S,"Inspection, Routine","1,045",Restaurant (101 - 200 seats),Med Risk (3),Food - Restaurants,Douglas,Tri-County Health Department,Chick Fil A Castle Rock FSU,6353 Promenade Pkwy,Castle Rock,CO,80108-1923,39.42192885,-104.8789,3/13/2020,0,0,0,0,0,0,0,0,0,0,0,0,0,0,0,1,0,0,0,0,0,0,0,0,0,0,0,0,0,1,0,0,0,0,0,0,0,0,0,0,0,0,0,1,1,0,0,0,0,0,0,1,0,0,0,0,0,3
FA0005957,PR0000741,DAMLFEHF7,"Inspection, Routine","1,025",Restaurant (0 - 100 seats),Med Risk (3),Food - Restaurants,Arapahoe,Tri-County Health Department,McDonalds of Littleton,8011 S Broadway,Littleton,CO,80122,39.571067,-104.9886,3/6/2020,0,0,0,0,0,0,0,0,0,0,0,0,0,0,0,0,0,0,0,0,0,1,0,0,0,0,0,0,0,1,0,0,0,0,0,0,0,0,0,0,0,0,0,0,0,0,0,0,0,0,0,0,0,0,0,0,0,0
FA0002424,PR0012923,DAZEDVUVP,"Inspection, Routine","1,025",Restaurant (0 - 100 seats),Med Risk (3),Food - Restaurants,Douglas,Tri-County Health Department,El Korita Restaurant,106 Wilcox St,Castle Rock,CO,80104,39.37033335,-104.86,3/2/2020,0,0,0,0,0,0,0,0,0,0,0,0,1,0,0,0,0,0,0,0,0,1,0,0,0,0,0,1,0,3,0,0,0,0,0,1,0,0,0,1,0,1,0,0,1,0,0,1,0,1,0,1,0,0,0,0,0,7
FA0003825,PR0010991,DA7ACM3WK,"Inspection, Routine","1,025",Restaurant (0 - 100 seats),Med Risk (3),Food - Restaurants,Arapahoe,Tri-County Health Department,Longshot Lounge,3665 S Federal Blvd,Sheridan,CO,80110,39.649853,-105.0253,3/4/2020,0,1,0,0,0,1,0,0,1,1,0,0,0,0,0,0,0,0,0,0,1,0,1,0,1,0,0,0,0,7,0,0,0,0,0,0,1,0,0,0,0,0,0,0,0,0,0,0,0,0,0,0,0,0,0,0,0,1
FA0011176,PR0012945,DAPTJOVFW,"Inspection, First Operational","1,025",Restaurant (0 - 100 seats),Med Risk (3),Food - Restaurants,Adams,Tri-County Health Department,Colorado Weddings,8301 Rosemary St,Commerce City,CO,80022,39.847353,-104.9003,3/3/2020,0,1,0,0,0,0,0,0,0,0,0,0,0,0,0,0,0,0,0,0,0,0,0,0,0,0,0,0,0,1,0,0,0,0,0,0,0,0,0,0,0,0,0,0,0,0,0,0,0,0,0,0,0,0,0,0,0,0
FA0004257,PR0001910,DAKCB90ZB,"Inspection, Routine","1,025",Restaurant (0 - 100 seats),Med Risk (3),Food - Restaurants,Douglas,Tri-County Health Department,New Dynasty,16522 Keystone Blvd Unit A,Parker,CO,80134,39.53215905,-104.7976,3/11/2020,0,0,0,0,0,0,0,0,0,0,0,0,1,0,1,1,0,0,0,0,0,1,0,0,0,0,0,0,0,4,0,0,0,0,0,0,0,0,1,0,0,1,0,1,1,0,0,1,0,1,0,1,0,0,0,1,1,9
FA0011184,PR0012955,DAKSBYNLS,"Inspection, First Operational","1,065",Restaurant (>200 seats),Med Risk (3),Food - Restaurants,Douglas,Tri-County Health Department,West Main Tap Room and Grill,18595 Mainstreet Ste 100,Parker,CO,80134,39.51839427,-104.7723,3/4/2020,0,0,0,0,0,1,0,0,0,1,0,0,1,0,1,0,0,0,0,0,0,0,0,0,1,0,0,1,0,6,0,0,0,0,0,0,0,1,0,0,0,1,0,1,1,0,0,0,1,0,0,0,0,0,0,0,0,5
FA0003576,PR0003452,DAMCRTF4G,"Inspection, Routine","1,225","Grocery Store w/ Deli (0 - 15,000 sq. ft.)",Med Risk (3),Food - Grocery,Douglas,Tri-County Health Department,La Baguette De Normandie LLC,16524 Keystone Blvd Unit C,Parker,CO,80134,39.53213097,-104.7976,3/6/2020,0,0,0,0,0,0,0,0,0,0,0,0,1,0,0,0,0,0,0,0,0,1,0,0,0,0,0,0,0,2,0,0,0,0,0,0,0,0,0,0,0,0,0,0,0,1,0,1,1,0,0,0,0,0,0,0,0,3
FA0009785,PR0010548,DAR3GSMJE,"Inspection, Routine","1,025",Restaurant (0 - 100 seats),Low Risk (2),Food - Restaurants,Douglas,Tri-County Health Department,Insights Center,345 Inverness Dr S Unit A-110,Englewood,CO,80112,39.560205,-104.8589,3/11/2020,0,0,0,0,0,0,0,0,0,0,0,0,0,0,0,0,0,0,0,0,0,0,0,0,0,0,0,0,0,0,0,0,0,0,0,0,0,0,0,0,0,0,0,0,0,0,0,0,1,1,0,0,0,0,0,0,0,2
FA0001100,PR0001118,DAGGLL2OJ,"Inspection, Routine","1,025",Restaurant (0 - 100 seats),Med Risk (3),Food - Restaurants,Douglas,Tri-County Health Department,Subway Sandwiches and Salads Main 5428,11017 S Parker Rd,Parker,CO,80134,39.51677378,-104.7648,3/13/2020,0,0,0,0,0,0,0,0,0,0,0,0,0,0,0,0,0,0,0,0,0,1,0,0,0,0,0,0,0,1,0,0,0,0,0,0,0,0,0,0,0,0,0,0,0,0,0,0,0,0,0,0,0,0,0,1,0,1
FA0000908,PR0001415,DAD9Y5XSK,"Inspection, Routine","1,045",Restaurant (101 - 200 seats),Med Risk (3),Food - Restaurants,Adams,Tri-County Health Department,McDonalds,9190 Federal Blvd,Federal Heights,CO,80221,39.886166,-104.9931,3/10/2020,0,0,0,0,0,0,0,0,0,1,0,0,0,0,1,0,0,0,0,0,0,1,0,0,0,0,0,0,0,3,0,0,0,0,0,0,0,0,0,0,0,0,0,0,0,1,0,0,0,0,0,0,0,0,0,0,0,1
FA0010556,PR0011944,DAVJEIPGZ,"Inspection, Routine","1,025",Restaurant (0 - 100 seats),Med Risk (3),Food - Restaurants,Arapahoe,Tri-County Health Department,Home 2 Suites By Hilton DenverSouth Centennial Airport,6640 S Paris St,Centennial,CO,80112,39.59628,-104.8497,3/5/2020,0,1,0,0,0,0,0,0,0,1,0,0,0,0,0,0,0,0,0,0,0,0,0,0,0,0,0,0,0,2,0,0,0,0,0,0,0,0,0,0,0,0,0,0,0,0,0,0,0,0,0,0,0,0,0,0,0,0
FA0002257,PR0000732,DAFFAAZLJ,"Inspection, Routine","1,005","No fee license (K-12 schools, non-profit)",Med Risk (3),Food - Institutions,Douglas,Tri-County Health Department,Cresthill Middle School,9195 Cresthill Ln,Highlands Ranch,CO,80130,39.54707219,-104.9296,3/11/2020,0,0,0,0,0,0,0,0,0,0,0,0,0,0,0,0,0,0,0,0,0,0,0,0,0,0,0,0,0,0,0,0,0,0,0,0,0,0,0,0,0,0,0,0,0,0,0,1,0,0,0,0,0,0,0,0,1,2
FA0002523,PR0011027,DAIIHTZLX,"Inspection, Routine","1,045",Restaurant (0 - 100 seats),Med Risk (3),Food - Restaurants,Adams,Tri-County Health Department,30/70 Sports Bar and Grill,1885 W 120th Ave Ste 1300,Westminster,CO,80234,39.827271,-104.9063,12/6/2019,0,0,0,0,0,0,0,0,0,0,0,0,0,0,0,1,0,0,0,0,1,0,1,0,0,0,0,0,0,3,0,0,0,0,0,0,0,0,0,1,0,1,0,0,0,0,0,0,0,0,0,0,0,0,0,0,1,3
FA0006380,PR0002545,DARXTNPLW,"Inspection, Routine","1,025",Restaurant (0 - 100 seats),Med Risk (3),Food - Restaurants,Adams,Tri-County Health Department,Woodys Wings N Things and Gourmet Chinese,6817 Lowell Blvd,Westminster,CO,80030,39.913986,-105.0487,3/5/2020,0,0,0,0,0,0,0,0,0,0,0,0,0,0,0,0,0,0,0,0,1,1,1,0,0,0,0,1,0,4,0,0,0,0,0,0,0,0,0,0,0,0,0,0,0,0,0,1,0,1,0,0,0,0,0,1,0,3
FA0001728,PR0000141,DA1DT746U,"Inspection, Routine","1,025",Restaurant (0 - 100 seats),Med Risk (3),Food - Restaurants,Douglas,Tri-County Health Department,Union American Bistro,3 Wilcox St,Castle Rock,CO,80104,39.36932665,-104.8601,3/11/2020,0,0,0,0,0,0,0,1,1,0,0,0,0,0,1,0,0,0,0,0,0,1,0,0,0,0,0,0,0,4,0,0,0,0,0,0,1,0,0,1,0,1,0,0,0,0,0,1,0,1,0,0,0,0,0,1,0,6
FA0001236,PR0012179,DA4W0WGME,"Inspection, Routine","1,025",Restaurant (0 - 100 seats),Med Risk (3),Food - Restaurants,Adams,Tri-County Health Department,Teds Phily Chease Steak,7215 E 72nd Ave Unit A,Commerce City,CO,80022,39.827453,-104.9048,3/4/2020,0,0,0,0,0,0,0,0,0,0,0,0,0,0,0,1,0,0,0,0,0,1,0,0,0,0,0,0,0,2,0,0,0,0,0,0,0,0,0,0,0,0,0,0,0,1,0,1,0,0,0,1,0,0,0,0,0,3
FA0002275,PR0003753,DARKT0MOM,"Inspection, Routine","1,005","No fee license (K-12 schools, non-profit)",Med Risk (3),Food - Institutions,Douglas,Tri-County Health Department,Legend High School,22219 Hilltop Rd,Parker,CO,80138,39.48916741,-104.7286,3/6/2020,0,0,0,0,0,0,0,0,0,0,0,0,0,0,0,0,0,0,0,0,0,0,0,0,0,0,0,0,0,0,0,0,0,0,0,0,0,0,0,0,0,0,0,0,0,0,0,0,0,0,0,1,0,0,0,0,0,1
FA0002687,PR0009790,DA8OK7YBK,"Inspection, Routine","1,065",Restaurant (>200 seats),High Risk (4),Food - Restaurants,Arapahoe,Tri-County Health Department,Sweet Tomatoes Restaurant,14015 E Evans Ave,Aurora,CO,80014,39.679253,-104.8265,3/6/2020,0,0,0,0,0,0,0,0,0,0,0,0,0,0,0,0,0,0,0,0,0,0,0,0,0,0,0,0,1,1,0,0,0,0,0,0,0,0,0,0,0,0,0,0,1,0,0,1,0,0,0,0,0,0,0,0,0,2
FA0000776,PR0008559,DAHRA0WJO,"Inspection, Routine","1,025",Restaurant (0 - 100 seats),Med Risk (3),Food - Restaurants,Adams,Tri-County Health Department,Halftime Sports Bar,6051 Quebec St,Commerce City,CO,80022,39.946148,-104.9437,3/11/2020,0,1,0,0,0,0,0,0,0,1,0,0,0,0,0,0,0,0,0,0,0,0,1,0,0,0,0,1,0,4,0,0,0,0,0,0,0,0,0,0,0,0,0,1,0,0,0,0,0,0,0,0,0,1,0,1,0,3
FA0002605,PR0012722,DALD01AEP,"Inspection, Routine","1,025",Restaurant (0 - 100 seats),Med Risk (3),Food - Restaurants,Arapahoe,Tri-County Health Department,Uncle Zhou Restaurant,12203 E Iliff Ave Unit D,Aurora,CO,80014,39.674973,-104.8446,3/2/2020,0,1,0,0,0,0,0,0,0,0,0,0,0,0,1,0,0,0,0,0,0,0,0,0,0,0,0,1,0,3,0,0,0,0,0,0,0,1,0,0,0,0,0,1,0,0,0,0,0,0,0,0,0,0,0,0,0,2
FA0002206,PR0000396,DAOJZX7HG,"Inspection, Routine","1,005","No fee license (K-12 schools, non-profit)",Med Risk (3),Food - Institutions,Douglas,Tri-County Health Department,Sierra Middle School,6651 E Pine Ln,Parker,CO,80138,39.54420846,-104.7627,3/13/2020,0,0,0,0,0,0,0,0,0,1,0,0,0,0,0,1,0,0,0,0,0,0,0,0,0,0,0,0,0,2,0,0,0,0,0,0,1,0,0,0,0,0,0,0,0,0,0,0,0,1,0,0,0,0,0,0,0,2
FA0006384,PR0012966,DAVOUDSH1,"Inspection, Routine","1,225","Grocery Store w/ Deli (0 - 15,000 sq. ft.)",Med Risk (3),Food - Grocery,Arapahoe,Tri-County Health Department,World Food Bazaar,242 Havana St Unit C,Aurora,CO,80010-4367,39.719837,-104.864133,3/12/2020,0,1,0,0,0,0,0,0,0,0,0,0,0,0,0,1,0,0,0,0,0,0,0,0,0,0,0,0,0,2,0,0,0,0,0,1,0,1,1,0,0,0,0,0,0,0,0,0,1,0,0,0,0,0,0,0,0,4
FA0005578,PR0002357,DAVWPMO0A,"Inspection, Routine","1,007","Limited Food Service (convenience, other)",Very Low Risk (1),Food - Grocery,Arapahoe,Tri-County Health Department,Shell,16892 E Iliff Ave,Aurora,CO,80013,39.673208,-104.791523,3/25/2019,0,0,0,0,0,0,0,0,0,1,0,0,0,0,0,0,0,0,0,0,0,0,0,0,0,0,0,0,0,1,0,0,0,0,0,0,0,0,0,0,0,0,0,0,0,0,0,1,0,0,0,1,0,0,0,0,0,2
FA0002825,PR0011110,DAA5CSVUB,"Inspection, Routine","1,025",Restaurant (0 - 100 seats),Med Risk (3),Food - Restaurants,Douglas,Tri-County Health Department,Granellis Pizzeria,21 Wilcox St,Castle Rock,CO,80104,39.36997192,-104.86,3/4/2020,0,0,0,0,0,0,0,0,0,1,0,0,0,0,0,0,0,0,0,0,0,0,0,0,0,0,0,0,0,1,0,0,0,0,0,0,0,0,0,1,0,0,0,0,0,0,0,1,1,1,0,0,0,1,0,1,0,6
FA0010042,PR0011032,DAN0UCMXH,"Inspection, Routine","1,025",Restaurant (0 - 100 seats),Med Risk (3),Food - Restaurants,Arapahoe,Tri-County Health Department,Garlic Knot The,1706 S Chambers Rd,Aurora,CO,80017,39.68548268,-104.8097,3/5/2020,0,0,0,0,0,0,0,0,0,1,0,0,0,0,0,1,0,0,0,0,0,0,1,1,0,0,0,1,0,5,0,0,0,0,0,0,0,0,0,1,0,0,0,0,0,0,0,1,0,0,0,0,0,0,0,0,1,3
FA0010422,PR0012031,DAZJXJIQ0,"Inspection, Routine","1,007","Limited Food Service (convenience, other)",Low Risk (2),Food - Restaurants,Adams,Tri-County Health Department,Wetzels Pretzels,13801 Grant St Ste 515,Thornton,CO,80023,39.946203,-104.983,3/11/2020,0,0,1,0,0,0,0,0,0,0,0,0,0,0,0,0,0,0,0,0,1,0,1,0,0,0,0,0,0,3,0,0,0,0,0,0,0,0,0,0,0,0,0,0,1,0,0,0,0,0,0,0,0,0,0,0,0,1
FA0003510,PR0010979,DAHZ9Y9SM,"Inspection, Routine","1,007","Limited Food Service (convenience, other)",Very Low Risk (1),Food - Restaurants,Arapahoe,Tri-County Health Department,Cold Stone Creamery,23973 E Prospect Ave Unit A,Aurora,CO,80016,39.600281,-104.7095,3/3/2020,0,0,0,0,0,0,0,0,0,0,0,0,0,0,0,0,0,0,0,0,0,0,0,0,0,0,0,0,0,0,0,0,0,0,0,0,0,0,0,0,0,0,0,0,0,0,0,0,0,0,0,0,0,0,0,0,0,0
FA0007704,PR0007429,DAE09GWWK,"Inspection, Routine","1,025",Restaurant (0 - 100 seats),Med Risk (3),Food - Restaurants,Douglas,Tri-County Health Department,Hilltop Tap House,19878 Hilltop Rd Unit 111,Parker,CO,80134,39.50945449,-104.7578,3/3/2020,0,0,0,0,0,1,0,0,0,0,0,0,0,0,0,0,0,0,0,0,0,0,0,0,0,0,0,0,0,1,0,0,0,0,0,0,0,1,0,0,0,1,0,0,0,0,0,0,0,1,0,0,0,0,0,0,0,3
FA0001143,PR0000704,DAI0WHUJI,"Inspection, Routine","1,025",Restaurant (0 - 100 seats),Med Risk (3),Food - Restaurants,Arapahoe,Tri-County Health Department,Sandcreek Lounge,16893 E Iliff Ave,Aurora,CO,80013,39.673786,-104.7914,3/6/2020,0,1,0,0,0,0,0,1,0,0,0,0,0,0,0,0,0,0,0,0,0,0,0,0,0,0,0,1,0,3,0,0,0,0,0,0,0,0,0,0,0,0,0,0,0,0,0,0,0,0,0,0,0,0,0,1,0,1
FA0002094,PR0001800,DAT5IJKH9,"Inspection, Routine","1,265","Grocery Store w/ Deli (>15,000 sq. ft.)",Med Risk (3),Food - Grocery,Adams,Tri-County Health Department,King Soopers 81,500 E Bromley Ln,Brighton,CO,80601,39.868301,-104.9717,3/16/2020,0,0,0,0,0,0,0,0,0,0,0,0,1,0,0,0,0,0,0,0,0,0,0,0,0,0,0,0,0,1,0,0,0,0,0,0,0,0,0,0,0,0,0,0,1,0,0,0,0,0,1,1,0,0,0,1,0,4
FA0004488,PR0001906,DAZEXZWVN,"Inspection, Routine","1,007","Limited Food Service (convenience, other)",Very Low Risk (1),Food - Grocery,Adams,Tri-County Health Department,U Save Mart,6590 Monaco St,Commerce City,CO,80022,39.91423,-104.985,3/5/2020,0,0,0,0,0,0,0,0,0,1,0,0,0,0,0,1,0,0,0,0,0,0,0,0,0,0,0,0,0,2,0,0,0,0,0,0,0,0,0,0,0,0,0,0,0,0,0,1,1,0,0,0,0,0,0,1,0,3
FA0001194,PR0011196,DASMVVERO,"Inspection, Routine","1,025",Restaurant (0 - 100 seats),Med Risk (3),Food - Restaurants,Arapahoe,Tri-County Health Department,Canon Catering,6518 S Broadway,Littleton,CO,80121,39.600136,-104.9881,3/3/2020,0,1,0,0,1,0,0,0,0,1,0,0,0,0,0,0,0,0,0,0,0,0,1,0,0,0,0,1,0,5,0,0,0,0,0,0,0,0,0,0,0,0,0,0,0,0,0,1,0,0,0,0,0,0,0,1,0,2
FA0007943,PR0012441,DABP5JUEZ,"Inspection, Routine","1,007","Limited Food Service (convenience, other)",Very Low Risk (1),Food - Restaurants,Adams,Tri-County Health Department,Hideaway Saloon,6171 Olive St,Commerce City,CO,80022,39.914257,-104.9872,3/4/2020,0,0,0,0,0,0,0,0,0,0,0,0,0,0,0,0,0,0,0,0,0,0,0,0,0,0,0,0,0,0,0,0,0,0,0,0,0,0,0,0,0,0,0,0,0,0,0,0,0,1,0,0,0,0,0,0,0,1
FA0006235,PR0004301,DAOOF7MT0,"Inspection, Routine","1,265","Grocery Store w/ Deli (>15,000 sq. ft.)",Med Risk (3),Food - Grocery,Adams,Tri-County Health Department,WalMart 4567,7101 E 128th Ave,Thornton,CO,80602,39.82856,-104.9133,3/6/2020,0,0,0,0,0,0,0,0,0,1,0,0,1,0,0,0,0,0,0,0,1,0,0,0,0,0,0,1,0,4,0,0,0,0,0,0,0,0,0,0,0,0,0,0,0,0,0,0,0,0,1,1,0,0,0,1,1,4
FA0006224,PR0002140,DAVSVULJW,"Inspection, Routine","1,265","Grocery Store w/ Deli (>15,000 sq. ft.)",Med Risk (3),Food - Grocery,Arapahoe,Tri-County Health Department,Sams Club 6631,880 S Abilene St,Aurora,CO,80012,39.701099,-104.8279,3/6/2020,0,0,0,0,0,0,0,0,0,1,0,0,0,0,0,1,0,0,0,0,0,0,0,0,0,0,0,1,0,3,0,0,0,0,0,0,0,0,0,0,0,0,0,0,1,0,0,0,0,0,0,0,0,0,0,0,1,2
FA0001479,PR0001818,DARS0KFBS,"Inspection, Routine","1,025",Restaurant (0 - 100 seats),Med Risk (3),Food - Restaurants,Arapahoe,Tri-County Health Department,Chipotle Mexican Grill,4205 S Buckley Rd,Aurora,CO,80013-2947,39.64017667,-104.792,3/9/2020,0,0,0,0,0,0,0,1,0,1,0,0,0,0,0,0,0,0,0,0,1,0,0,0,0,0,0,0,0,3,0,0,0,0,0,0,0,0,0,0,0,0,0,0,0,0,0,0,0,0,0,0,0,0,0,0,0,0
FA0003458,PR0003932,DAXRTLZPY,"Inspection, Routine","1,007","Limited Food Service (convenience, other)",Very Low Risk (1),Food - Grocery,Adams,Tri-County Health Department,Seven Eleven 26289A,2500 E 88th Ave,Thornton,CO,80229,39.856182,-105.0051,3/6/2020,0,0,1,0,0,0,0,1,0,1,0,0,0,0,0,0,0,0,0,0,1,1,0,0,0,0,0,0,0,5,0,0,0,0,0,0,1,0,0,0,0,0,0,0,0,0,0,0,0,0,0,0,0,0,0,0,0,1
FA0006048,PR0012979,DA81IB5CC,"Inspection, Routine","1,025",Restaurant (0 - 100 seats),Med Risk (3),Food - Restaurants,Adams,Tri-County Health Department,Tasty Donuts,6441 E 72nd Pl,Commerce City,CO,80022,39.849064,-105.018532,3/13/2020,0,0,0,0,0,0,0,0,0,0,0,0,0,0,0,0,0,0,0,0,0,0,0,0,0,0,0,0,0,0,0,0,0,0,0,0,0,0,0,0,0,0,0,0,0,0,0,0,0,0,0,0,0,0,0,0,0,0
FA0003560,PR0003671,DAXN4K7FW,"Inspection, Routine","1,225","Grocery Store w/ Deli (0 - 15,000 sq. ft.)",Med Risk (3),Food - Grocery,Adams,Tri-County Health Department,Kum and Go,2150 E Bridge St,Brighton,CO,80601,39.863438,-105.0106,3/3/2020,0,0,0,0,0,1,0,0,0,1,0,0,0,0,0,0,0,0,0,0,1,1,1,0,0,0,0,0,0,5,0,0,0,0,0,1,0,0,0,1,0,0,0,0,0,0,0,0,0,0,0,0,0,0,1,1,1,5
FA0009938,PR0010829,DAWIIFZ0O,"Inspection, Routine","1,085","Grocery Store (0 - 15,000 sq. ft.)",Low Risk (2),Food - Grocery,Arapahoe,Tri-County Health Department,African International Market,18801 E Hampden Ave Unit 170,Aurora,CO,80013,39.65313497,-104.7687,3/12/2020,0,1,0,0,0,0,0,0,0,1,1,0,0,0,0,1,0,0,0,0,0,0,1,0,0,0,0,1,0,6,0,0,0,0,0,0,0,1,0,0,0,0,0,0,0,0,0,0,0,0,1,0,0,0,1,0,0,3
FA0003943,PR0004002,DAEAYIQKL,"Inspection, Routine","1,025",Restaurant (0 - 100 seats),Med Risk (3),Food - Restaurants,Adams,Tri-County Health Department,Subway Sandwiches 22093,450 E Bromley Ln Unit 120,Brighton,CO,80601,39.868828,-105.0285,3/12/2020,1,1,0,0,1,0,0,1,0,1,0,0,0,0,0,1,0,0,0,0,0,0,0,0,0,0,0,0,0,6,0,0,0,0,0,0,1,0,0,0,0,0,0,0,0,0,0,1,0,0,0,1,0,0,0,0,0,3
FA0011193,PR0012974,DA69NUVW1,"Inspection, First Operational","1,065",Restaurant (>200 seats),Med Risk (3),Food - Restaurants,Adams,Tri-County Health Department,Texas Roadhouse,3738 Eagle Blvd,Brighton,CO,80601,,,3/11/2020,0,0,0,0,0,1,0,0,0,0,0,0,0,0,1,0,0,0,0,0,0,0,0,0,0,0,0,0,0,2,0,0,0,0,0,0,0,0,0,0,0,0,0,0,0,0,0,0,1,0,0,0,0,0,1,0,0,2
FA0007917,PR0003533,DA0230002,"Inspection, Routine","1,025",Restaurant (0 - 100 seats),Med Risk (3),Food - Restaurants,Adams,Tri-County Health Department,Bleu Sage Catering,1500 E 128th Ave,Thornton,CO,80241,39.828606,-105.0296,3/10/2020,0,1,0,0,0,0,0,0,0,1,0,0,0,0,0,0,0,0,0,0,0,1,0,0,0,0,0,0,0,3,0,0,0,0,0,0,0,0,0,0,0,0,0,0,0,0,0,0,1,0,0,1,0,0,0,1,0,3
FA0004812,PR0012411,DALY1HVHD,"Inspection, Routine","1,025",Restaurant (0 - 100 seats),Med Risk (3),Food - Restaurants,Adams,Tri-County Health Department,Daylight Cafe,3924 E 120th Ave,Thornton,CO,80233,39.825092,-105.0062,3/4/2020,0,1,1,0,0,0,0,1,0,0,0,0,0,0,0,1,0,0,0,0,0,1,0,0,0,0,0,0,0,5,0,0,0,0,0,0,0,0,0,0,0,0,0,0,0,0,0,0,0,0,0,0,0,0,0,0,0,0
FA0002238,PR0002330,DAZDLXIRM,"Inspection, Routine","1,005","No fee license (K-12 schools, non-profit)",Med Risk (3),Food - Institutions,Douglas,Tri-County Health Department,Timber Trail Elementary,690 W Castle Pines Pkwy,Castle Rock,CO,80108,39.47248813,-104.8986,3/12/2020,0,0,0,0,0,0,0,0,0,0,0,0,0,0,0,0,0,0,0,0,0,0,0,0,0,0,0,0,0,0,0,0,0,0,0,0,0,0,0,0,0,0,0,0,0,0,0,0,0,0,0,0,0,0,0,0,0,0
FA0004196,PR0005933,DAIRILZQL,"Inspection, Routine","1,025",Restaurant (0 - 100 seats),Low Risk (2),Food - Restaurants,Adams,Tri-County Health Department,Dominos Pizza 6239,3941 E 120th Ave,Thornton,CO,80233,39.823074,-104.9314,3/9/2020,0,0,0,0,0,0,0,0,0,0,0,0,0,0,0,1,0,0,0,0,0,0,0,0,0,0,0,0,0,1,0,0,0,0,0,0,0,0,0,0,0,0,0,0,0,0,0,0,0,0,0,1,0,1,0,0,0,2
FA0010548,PR0011933,DAIDTCG6X,"Inspection, Routine","1,025",Restaurant (0 - 100 seats),Med Risk (3),Food - Restaurants,Arapahoe,Tri-County Health Department,Mod Pizza - 425,18300 Cottonwood Dr Ste 111,Parker,CO,80138-8821,39.55814,-104.7778,3/2/2020,0,0,0,0,0,0,0,1,0,0,0,0,0,0,0,1,0,0,0,0,0,0,0,0,0,0,0,0,0,2,0,0,0,0,0,0,0,0,0,0,0,0,0,0,0,0,0,0,0,0,0,0,0,0,0,0,0,0
FA0003044,PR0011129,DA6QAQXXN,"Inspection, Routine","1,025",Restaurant (0 - 100 seats),Med Risk (3),Food - Restaurants,Adams,Tri-County Health Department,Mika Sushi 2,10343 Federal Blvd Unit H,Westminster,CO,80260,39.885258,-105.0267,3/4/2020,0,0,0,0,0,0,0,0,0,0,0,0,0,1,0,0,0,0,0,0,0,1,0,1,0,0,0,1,0,4,0,0,0,0,0,0,0,0,0,1,0,0,0,0,0,1,0,0,0,0,0,1,0,1,0,0,0,4
FA0004384,PR0009604,DACKXQAG6,"Inspection, Routine","1,025",Restaurant (0 - 100 seats),Med Risk (3),Food - Restaurants,Arapahoe,Tri-County Health Department,Jalapenos,3120 S Broadway,Englewood,CO,80113,39.660051,-104.9875,3/12/2020,0,1,0,0,0,0,0,0,0,0,0,0,0,0,0,0,0,0,0,0,0,0,1,0,0,0,0,0,0,2,0,0,0,0,0,0,0,0,0,0,0,0,0,0,0,0,0,0,0,0,0,1,0,0,0,0,0,1
FA0004521,PR0001113,DAUXADGZT,"Inspection, Routine","1,065",Restaurant (>200 seats),Med Risk (3),Food - Restaurants,Arapahoe,Tri-County Health Department,Hooters,2610 S Parker Rd,Aurora,CO,80014,39.668812,-104.8634,3/9/2020,0,0,0,0,0,0,0,0,0,1,0,0,1,0,0,1,0,0,0,0,0,0,0,0,0,0,0,0,0,3,0,0,0,0,0,0,0,0,0,0,0,0,0,0,0,0,0,0,0,0,0,1,0,0,0,0,0,1
FA0008059,PR0007842,DALW1MXSD,"Inspection, Routine","1,065",Restaurant (>200 seats),High Risk (4),Food - Restaurants,Adams,Tri-County Health Department,Cheddars Casual Cafe,10250 Grant St Unit 300,Thornton,CO,80229,39.897854,-104.9401,3/13/2020,0,0,0,0,0,0,0,0,1,0,0,0,0,0,0,0,0,0,0,0,0,0,0,0,0,0,0,0,0,1,0,0,0,0,0,0,1,0,0,0,0,0,0,0,0,0,0,0,0,0,0,1,0,0,0,1,0,3
FA0003391,PR0009898,DASIF9ATT,"Inspection, Routine","1,025",Restaurant (0 - 100 seats),Med Risk (3),Food - Restaurants,Douglas,Tri-County Health Department,Egg The,8800 S Colorado Blvd Unit B,Highlands Ranch,CO,80126-3930,39.557487,-104.9409,3/12/2020,0,1,0,0,0,0,0,0,0,0,0,0,0,0,0,1,0,0,0,0,0,0,0,0,1,0,0,0,0,3,0,0,0,0,0,0,0,0,0,0,0,1,0,0,0,0,0,0,0,0,0,1,0,1,0,0,0,3
FA0001336,PR0000331,DAH1YFPEL,"Inspection, Routine","1,005","No fee license (K-12 schools, non-profit)",Med Risk (3),Food - Institutions,Arapahoe,Tri-County Health Department,Arrowhead Elementary,19100 E Bates Ave,Aurora,CO,80013,39.664192,-104.7673,3/10/2020,0,0,0,0,0,0,0,0,0,0,0,0,0,0,0,0,0,0,0,0,0,0,0,0,0,0,0,0,0,0,0,0,0,0,0,0,0,0,0,0,0,0,0,0,0,0,0,0,0,0,0,0,0,0,0,0,0,0
FA0005370,PR0000477,DAO9HXBCV,"Inspection, Routine","1,045",Restaurant (101 - 200 seats),Med Risk (3),Food - Restaurants,Arapahoe,Tri-County Health Department,South Suburban Golf Course Restaurant,7900 S Colorado Blvd,Littleton,CO,80122,39.575251,-104.9416,3/3/2020,0,0,0,0,0,0,0,0,0,1,0,0,1,0,0,0,0,0,0,0,0,0,1,0,0,0,0,0,0,3,0,0,0,0,0,0,0,0,0,0,0,0,0,0,0,0,0,0,0,0,0,0,0,0,0,0,0,0
FA0004251,PR0011003,DA4RDCU9T,"Inspection, Routine","1,025",Restaurant (0 - 100 seats),Med Risk (3),Food - Restaurants,Arapahoe,Tri-County Health Department,Donut House,3124 S Parker Rd Unit B,Aurora,CO,80014-3100,39.66003,-104.8507,3/9/2020,0,1,0,0,0,0,0,0,0,0,0,0,0,0,0,0,0,0,0,0,0,0,0,0,0,0,0,1,0,2,0,0,0,0,0,0,0,0,0,0,0,0,0,1,0,0,0,0,1,1,0,1,0,1,0,1,0,6
FA0005855,PR0000268,DAOCVMUQ2,"Inspection, Routine","1,225","Grocery Store w/ Deli (0 - 15,000 sq. ft.)",High Risk (4),Food - Grocery,Douglas,Tri-County Health Department,Tonys Meats,874 W Happy Canyon Rd,Castle Rock,CO,80108,39.42754963,-104.9026,3/13/2020,0,0,0,0,0,1,0,0,0,1,0,0,1,1,1,1,0,0,0,0,0,0,1,0,0,0,0,0,0,7,0,0,0,1,0,0,1,0,0,1,0,0,0,1,0,0,0,0,0,1,0,0,0,0,0,1,0,6
FA0002051,PR0009939,DAAIO1SL6,"Inspection, Routine","1,025",Restaurant (0 - 100 seats),Med Risk (3),Food - Restaurants,Adams,Tri-County Health Department,Jewel of India,10343 Federal Blvd Unit P,Westminster,CO,80260,39.882251,-105.0267,3/4/2020,1,0,0,0,0,0,0,1,0,0,0,0,0,0,0,1,0,0,0,1,0,1,1,0,0,0,0,0,0,6,0,0,0,0,0,0,0,0,1,1,0,0,0,0,1,0,0,1,0,1,0,1,0,0,0,1,1,8
FA0005410,PR0005289,DAKQDBRCQ,"Inspection, Routine","1,005","No fee license (K-12 schools, non-profit)",Med Risk (3),Food - Institutions,Adams,Tri-County Health Department,St Augustine Catholic Church and Community Food,178 S 6th Ave,Brighton,CO,80601,39.841839,-105.0501,3/10/2020,0,0,0,0,0,0,0,0,0,0,0,0,0,0,1,0,0,0,0,0,0,0,0,0,0,0,0,0,0,1,0,0,0,0,0,0,0,0,0,0,0,0,0,0,0,0,0,0,1,0,0,0,0,0,0,0,1,2
FA0004276,PR0003857,DAAOGLEVH,"Inspection, Routine","1,025",Restaurant (0 - 100 seats),Med Risk (3),Food - Restaurants,Arapahoe,Tri-County Health Department,Pho Saigon Vietnamese Noodle and Grill,9555 E Arapahoe Rd Unit 1,Greenwood Village,CO,80112,39.595147,-104.8773,3/4/2020,0,1,0,0,0,0,0,0,0,0,0,0,0,0,0,1,0,0,0,0,1,0,1,1,0,0,0,0,0,5,0,0,0,0,0,0,0,0,0,0,0,0,0,0,0,0,0,0,0,1,0,0,0,0,0,0,1,2
FA0007956,PR0007738,DAOJ7S9MD,"Inspection, Routine","1,025",Restaurant (0 - 100 seats),Med Risk (3),Food - Restaurants,Adams,Tri-County Health Department,Kikka,4451 Main St,Westminster,CO,80031,39.914001,-104.941,3/10/2020,0,0,0,0,0,0,0,0,0,0,0,0,0,0,0,0,0,0,0,0,0,0,0,0,1,0,0,0,0,1,0,0,0,0,0,0,0,0,0,0,0,0,0,0,0,0,0,0,0,0,0,0,0,0,0,0,0,0
FA0006149,PR0009721,DAQUFDK0D,"Inspection, Routine","1,045",Restaurant (101 - 200 seats),Med Risk (3),Food - Restaurants,Adams,Tri-County Health Department,Chick Fil A at Brighton FSU,2035 Prairie Center Pkwy,Brighton,CO,80601,39.94294,-104.9902,3/4/2020,0,0,0,0,0,0,0,1,0,0,0,0,0,0,0,0,0,0,0,0,0,1,0,0,0,0,0,0,0,2,0,0,0,0,0,0,0,0,0,0,0,0,0,0,1,0,0,0,1,0,0,0,0,0,0,1,1,4
FA0001533,PR0000012,DAEY17CTM,"Inspection, Routine","1,007","Limited Food Service (convenience, other)",Very Low Risk (1),Food - Restaurants,Adams,Tri-County Health Department,Elvis Cinemas,5157 W 64th Ave,Arvada,CO,80003,39.838306,-105.0247,3/3/2020,0,0,0,0,0,0,0,0,0,1,0,0,0,0,1,0,0,0,0,0,0,0,0,0,0,0,0,0,0,2,0,0,0,0,0,0,0,0,0,0,0,0,0,0,0,0,0,0,0,0,0,0,0,0,0,1,0,1
FA0006205,PR0003387,DAYRQT6RA,"Inspection, Routine","1,125","Grocery Store (>15,000 sq. ft.)",Very Low Risk (1),Food - Grocery,Arapahoe,Tri-County Health Department,Walgreens 04470,20051 E Smoky Hill Rd,Aurora,CO,80015,39.61169645,-104.7546,3/10/2020,0,0,0,0,0,0,0,0,0,0,0,0,0,0,0,0,0,0,0,0,0,0,0,0,0,0,0,0,0,0,0,0,0,0,0,0,0,0,0,0,0,0,0,0,0,0,0,0,0,0,0,0,0,0,0,0,0,0
FA0008001,PR0011980,DAIRNJPU9,"Inspection, Routine","1,025",Restaurant (0 - 100 seats),Med Risk (3),Food - Restaurants,Arapahoe,Tri-County Health Department,Spice 8 Asian Kitchen,4510 S Reservoir Rd Unit D,Centennial,CO,80016,39.634327,-104.7604,3/3/2020,0,0,0,0,0,0,0,0,0,0,0,0,0,0,0,1,0,0,0,0,0,1,0,0,0,0,0,0,0,2,0,0,0,1,0,0,0,0,0,0,0,0,0,1,0,0,0,0,0,0,0,0,0,0,0,1,0,3
FA0004599,PR0004945,DA8UUI6D7,"Inspection, Routine","1,025",Restaurant (0 - 100 seats),Low Risk (2),Food - Restaurants,Arapahoe,Tri-County Health Department,Jimmy Johns 1494,91 W Mineral Ave Unit 110,Littleton,CO,80120,39.573592,-104.9895,3/5/2020,0,0,0,0,0,0,0,0,0,0,0,0,0,0,0,0,0,0,0,0,0,1,0,0,0,0,0,0,0,1,0,0,0,0,0,0,0,1,0,0,0,0,0,0,0,0,0,0,0,0,0,0,0,0,0,0,0,1
FA0008715,PR0011141,DAJ3J3PXS,"Inspection, Routine","1,025",Restaurant (0 - 100 seats),Med Risk (3),Food - Restaurants,Arapahoe,Tri-County Health Department,Fat Shack,1708 S Chambers Rd Unit 10,Aurora,CO,80017,39.68545564,-104.8097,3/10/2020,0,0,0,0,0,0,0,0,0,1,0,0,0,0,0,1,0,0,0,0,0,0,0,0,0,0,0,0,0,2,0,0,0,0,0,0,0,0,0,0,0,0,0,0,0,0,0,1,0,1,0,0,0,0,0,1,0,3
FA0000701,PR0010484,DA3I2D0GU,"Inspection, Routine","1,025",Restaurant (0 - 100 seats),Med Risk (3),Food - Restaurants,Douglas,Tri-County Health Department,Garlic Jims Famous Gourmet Pizza,3982 Red Cedar Dr Ste A,Highlands Ranch,CO,80126,39.52585146,-104.9422,3/4/2020,0,1,0,0,0,0,0,0,0,0,0,0,0,0,0,0,0,0,0,0,0,0,0,0,0,0,0,0,0,1,0,0,0,0,0,0,0,0,0,0,0,0,0,0,0,0,0,0,0,1,0,0,0,1,0,1,1,4
FA0004941,PR0009411,DA039TZ10,"Inspection, Routine","1,025",Restaurant (0 - 100 seats),Med Risk (3),Food - Restaurants,Adams,Tri-County Health Department,Del Taco 1047,18260 E 104th Ave,Commerce City,CO,80022,39.801983,-104.9804,3/13/2020,0,0,0,0,0,0,0,0,0,1,0,0,1,0,0,0,0,1,0,1,1,0,0,0,0,0,0,0,0,5,0,0,0,0,0,0,0,0,1,0,0,0,0,0,1,0,0,0,0,1,0,1,0,0,0,0,0,4
FA0007961,PR0009630,DAKBXFIEO,"Inspection, Routine","1,225","Grocery Store w/ Deli (0 - 15,000 sq. ft.)",Med Risk (3),Food - Grocery,Arapahoe,Tri-County Health Department,King Soopers 063 Sushi,8200 S Holly St,Centennial,CO,80122,39.567451,-104.923,3/6/2020,0,0,0,0,0,0,0,0,0,0,0,0,0,0,0,0,0,0,0,0,0,0,0,0,0,0,0,0,0,0,0,0,0,0,0,0,0,0,0,0,0,0,0,0,0,0,0,0,0,0,0,0,0,0,0,0,0,0
FA0007258,PR0009286,DA2O23AFC,"Inspection, Routine","1,225","Grocery Store w/ Deli (0 - 15,000 sq. ft.)",Med Risk (3),Food - Grocery,Arapahoe,Tri-County Health Department,MC Gas and Food,1305 S Zante St,Aurora,CO,80018-4600,39.692784,-104.718458,3/11/2020,0,1,0,0,0,0,0,0,0,0,0,0,1,0,0,0,0,0,0,0,1,0,0,0,0,0,0,0,0,3,0,0,0,0,0,0,1,0,0,0,0,0,0,0,1,0,0,0,0,0,0,0,0,0,1,0,0,3
FA0006011,PR0000467,DAXSESDCV,"Inspection, Routine","1,007","Limited Food Service (convenience, other)",Very Low Risk (1),Food - Grocery,Adams,Tri-County Health Department,Circle K 2744144,8801 Washington St,Thornton,CO,80229,39.98798,-104.824,3/11/2020,0,0,0,0,0,0,0,0,0,0,0,0,0,0,0,0,0,0,0,0,0,1,0,0,0,0,0,0,0,1,0,0,0,0,0,0,0,0,0,0,0,0,0,0,0,0,0,0,0,0,0,0,0,0,0,0,0,0
FA0003400,PR0005159,DAHPWHHAQ,"Inspection, Routine","1,025",Restaurant (0 - 100 seats),Med Risk (3),Food - Restaurants,Arapahoe,Tri-County Health Department,Jump Start Cafe,6770 S Yosemite St,Centennial,CO,80112,39.593271,-104.8884,3/9/2020,0,1,0,0,0,0,0,0,1,1,0,0,0,0,0,0,0,0,0,0,0,0,1,0,0,0,0,0,0,4,0,0,0,0,0,0,1,0,0,0,0,0,0,0,0,0,0,1,0,1,0,0,0,0,0,1,0,4
FA0003058,PR0008773,DA0IQJP2F,"Inspection, Routine","1,025",Restaurant (0 - 100 seats),High Risk (4),Food - Restaurants,Douglas,Tri-County Health Department,Cafe China,10920 S Parker Rd Unit B3,Parker,CO,80134,39.51626562,-104.7645,3/16/2020,0,0,0,0,0,0,0,0,0,0,0,0,0,0,0,0,0,0,0,0,0,1,0,0,0,0,0,0,0,1,0,0,0,0,0,0,0,0,0,1,0,0,0,0,0,1,0,1,0,1,0,0,0,1,0,1,1,7
FA0005635,PR0005330,DAVIVSQTS,"Inspection, Routine","1,025",Restaurant (0 - 100 seats),Med Risk (3),Food - Restaurants,Adams,Tri-County Health Department,McDonalds Restaurant 34804,770 W 84th Ave,Thornton,CO,80260,39.853222,-105.0155,3/16/2020,0,0,0,0,0,0,0,0,0,1,0,0,0,0,0,1,0,0,0,0,0,0,0,0,0,0,0,0,0,2,0,0,0,0,0,0,0,0,0,0,0,0,0,0,0,0,0,0,0,1,0,1,0,0,0,0,0,2
FA0006394,PR0010929,DA5HQS0KI,"Inspection, Routine","1,025",Restaurant (0 - 100 seats),Med Risk (3),Food - Restaurants,Arapahoe,Tri-County Health Department,Burger King 2424,15340 E Hampden Ave,Aurora,CO,80013,39.65295,-104.8096,3/6/2020,0,0,0,0,0,0,0,0,0,1,0,0,0,0,0,0,0,0,0,0,0,0,0,0,0,0,0,0,0,1,0,0,0,0,0,0,0,0,0,0,0,1,0,0,0,0,0,0,0,0,0,0,0,0,0,0,0,1
FA0002250,PR0000699,DAWZS95PG,"Inspection, Routine","1,005","No fee license (K-12 schools, non-profit)",Med Risk (3),Food - Institutions,Douglas,Tri-County Health Department,Cherokee Trail Elementary,17302 Clarke Farms Dr,Parker,CO,80134,39.52619368,-104.7866,3/4/2020,0,0,0,0,0,0,0,0,0,0,0,0,0,0,0,0,0,0,0,0,0,0,0,0,0,0,0,0,0,0,0,0,0,0,0,0,0,0,0,0,0,0,0,0,0,0,0,1,0,0,0,1,0,0,0,1,0,3
FA0002290,PR0000596,DAQ9UB90O,"Inspection, Routine","1,005","No fee license (K-12 schools, non-profit)",Med Risk (3),Food - Institutions,Douglas,Tri-County Health Department,Ponderosa High School,7007 E Bayou Gulch Rd,Parker,CO,80134,39.43626785,-104.7562,3/6/2020,0,0,0,0,0,0,0,0,0,0,0,0,0,0,0,0,0,0,0,0,0,0,0,0,0,0,0,0,0,0,0,0,0,0,0,0,0,0,0,0,0,0,0,0,0,0,0,0,0,0,0,0,0,0,0,0,0,0
FA0003507,PR0010770,DA4WRL78Z,"Inspection, Routine","1,025",Restaurant (0 - 100 seats),Med Risk (3),Food - Restaurants,Douglas,Tri-County Health Department,Zaika Indian,78 E Allen St Ste 108,Castle Rock,CO,80108,39.41241968,-104.8618,3/12/2020,0,0,0,0,0,0,0,0,0,1,0,0,1,0,0,0,0,0,0,0,0,0,1,0,0,0,0,0,0,3,0,0,0,0,0,0,0,0,1,1,0,1,0,1,0,0,0,1,0,1,0,0,0,0,0,1,1,8
FA0003286,PR0012997,DA2AYIPK6,"Inspection, First Operational","1,225","Grocery Store w/ Deli (0 - 15,000 sq. ft.)",Med Risk (3),Food - Grocery,Douglas,Tri-County Health Department,King Soopers JFE Sushi LLC,8673 S Quebec St,Highlands Ranch,CO,80126,39.55806695,-104.9066,3/4/2020,0,0,0,0,0,0,0,0,0,0,0,0,0,0,0,0,0,0,0,0,0,0,0,0,0,0,0,0,0,0,0,0,0,0,0,0,0,0,0,0,0,0,0,0,0,0,0,0,0,0,0,0,0,0,0,0,0,0
FA0003169,PR0002994,DABFVXABB,"Inspection, Routine","1,025",Restaurant (0 - 100 seats),Med Risk (3),Food - Restaurants,Douglas,Tri-County Health Department,JP Asian Bistro Corporation,8351 N Rampart Range Rd Unit C101,Littleton,CO,80125,39.48291974,-105.0732,8/6/2019,0,0,0,0,0,0,0,0,0,1,0,0,0,0,0,0,0,0,0,0,0,1,1,0,0,0,0,0,0,3,0,0,0,1,0,0,0,0,0,0,0,0,0,0,0,0,0,0,0,1,0,0,0,0,0,1,0,3
FA0009873,PR0010709,DAZ22XC40,"Inspection, Routine","1,225","Grocery Store w/ Deli (0 - 15,000 sq. ft.)",Low Risk (2),Food - Grocery,Arapahoe,Tri-County Health Department,Maverik,3755 N Chambers Rd,Aurora,CO,80011,39.768511,-104.81,3/9/2020,0,0,0,0,0,1,0,0,0,1,0,0,0,0,1,0,0,0,0,0,1,0,0,0,0,0,0,0,0,4,0,0,0,0,0,0,0,0,1,0,0,0,0,0,0,0,0,0,0,0,0,0,0,0,0,0,0,1
FA0002023,PR0012995,DAXM62WDX,"Inspection, Routine","1,007","Limited Food Service (convenience, other)",Low Risk (2),Food - Restaurants,Douglas,Tri-County Health Department,Cold Stone Creamery,312 Metzler Dr Unit A,Castle Rock,CO,80109,39.40923823,-104.8595,3/11/2020,0,0,0,0,0,0,0,0,0,0,0,0,0,0,0,0,0,0,0,0,0,0,0,0,0,0,0,0,0,0,0,0,0,0,0,0,0,0,0,0,0,0,0,0,0,0,0,0,0,0,0,0,0,0,0,0,0,0
FA0001262,PR0003666,DA4V7OGBD,"Inspection, Routine","1,025",Restaurant (0 - 100 seats),High Risk (4),Food - Restaurants,Arapahoe,Tri-County Health Department,Murphy Creek Grill,1700 S Old Tom Morris Rd,Aurora,CO,80018,39.686035,-104.709,3/12/2020,0,1,0,0,0,0,0,0,0,1,0,0,0,0,0,1,0,0,0,0,0,0,1,0,0,0,0,0,0,4,0,0,0,0,0,0,1,0,0,0,0,1,0,0,0,0,0,0,0,1,0,0,0,0,0,0,0,3
FA0007339,PR0007019,DA2SYY8VQ,"Inspection, Routine","1,007","Limited Food Service (convenience, other)",Very Low Risk (1),Food - Grocery,Adams,Tri-County Health Department,Sams Service Station,680 E 84th Ave,Thornton,CO,80229,39.854897,-104.9933,3/9/2020,0,0,0,0,0,0,0,0,0,1,0,0,0,0,0,0,0,0,0,0,0,0,0,0,0,0,0,1,0,2,0,0,0,0,0,0,0,0,0,0,0,0,0,0,0,0,0,0,0,1,0,0,0,0,0,0,0,1
FA0010995,PR0012609,DACQWPVPI,"Inspection, Routine","1,007","Limited Food Service (convenience, other)",Low Risk (2),Food - Grocery,Arapahoe,Tri-County Health Department,Seven Eleven 39847,9171 E Arapahoe Rd,Greenwood Village,CO,80112-3619,39.59535,-104.8826,3/5/2020,0,1,0,0,0,0,0,0,0,1,0,0,0,0,0,0,0,0,0,0,0,0,0,0,0,0,0,0,0,2,0,0,0,0,0,0,0,0,0,0,0,0,0,0,0,0,0,0,0,0,1,0,0,0,0,0,0,1
FA0007937,PR0007713,DABQ5BC3Q,"Inspection, Routine","1,265","Grocery Store w/ Deli (>15,000 sq. ft.)",Med Risk (3),Food - Grocery,Adams,Tri-County Health Department,Whole Foods,4451 Main St,Westminster,CO,80031,39.914001,-104.941,3/10/2020,0,0,0,0,0,0,0,0,0,1,0,0,0,0,0,0,0,0,0,0,0,0,0,0,0,0,0,0,0,1,0,0,0,0,0,0,0,0,0,0,0,0,0,0,0,0,0,1,0,0,0,1,0,0,0,1,1,4
FA0004419,PR0012094,DABOLWH7D,"Inspection, Routine","1,025",Restaurant (0 - 100 seats),Low Risk (2),Food - Restaurants,Adams,Tri-County Health Department,Mendozas Juice and Ice Cream Bar,9265 Washington St,Thornton,CO,80229,39.986843,-104.8164,3/5/2020,0,1,0,0,0,0,0,0,1,1,0,0,0,0,0,0,0,0,0,0,0,0,1,0,0,0,0,0,0,4,0,0,0,0,0,0,1,0,0,0,0,0,0,0,0,0,0,1,0,0,0,0,0,0,0,0,1,3
FA0000903,PR0003602,DAOSZTAVE,"Inspection, Routine","1,025",Restaurant (0 - 100 seats),Med Risk (3),Food - Restaurants,Douglas,Tri-County Health Department,McDonalds of Castle Rock,995 Park St,Castle Rock,CO,80104,39.38000138,-104.8659,3/11/2020,0,0,0,0,0,0,0,0,0,0,0,0,0,0,0,0,0,0,0,0,0,1,0,0,0,0,0,0,0,1,0,0,0,0,0,0,0,0,0,0,0,0,0,0,0,0,0,1,0,1,0,1,0,1,0,1,0,5
FA0003440,PR0012880,DA7VV2E6G,"Inspection, Routine","1,065",Restaurant (101 - 200 seats),Med Risk (3),Food - Restaurants,Douglas,Tri-County Health Department,Clock Tower Grill,9360 Station St Ste 100,Lone Tree,CO,80124,39.54635285,-104.8709,3/5/2020,0,0,0,0,0,0,0,0,0,0,0,0,1,0,0,0,0,0,0,0,0,0,1,0,0,0,0,1,0,3,0,0,0,0,0,0,0,1,0,0,0,0,0,0,1,0,0,1,1,0,0,1,0,0,0,0,0,5
FA0008542,PR0008655,DAECNR0VI,"Inspection, Routine","1,025",Restaurant (0 - 100 seats),Med Risk (3),Food - Restaurants,Arapahoe,Tri-County Health Department,Bawarchi Biryani Point,11001 E Arapahoe Pl Unit B1,Centennial,CO,80112,39.595013,-104.8601,3/2/2020,1,0,0,0,0,1,0,1,0,1,0,0,0,0,1,1,0,0,0,0,0,1,1,0,0,0,0,1,0,9,0,0,0,0,0,0,0,1,1,1,0,0,0,0,1,1,0,1,0,1,0,1,0,0,0,1,1,10
FA0002388,PR0005910,DA0STBMAL,"Inspection, Routine","1,025",Restaurant (0 - 100 seats),Med Risk (3),Food - Restaurants,Douglas,Tri-County Health Department,Einstein Bros Bagels 3605,3993 Limelight Ave Unit A,Castle Rock,CO,80109,39.40294216,-104.8818,8/31/2020,0,0,0,0,0,0,0,0,0,0,0,0,0,0,0,0,0,0,0,0,0,0,0,0,0,0,0,0,0,0,0,0,0,0,0,0,0,0,0,0,0,0,0,0,0,0,0,0,0,0,0,0,0,0,0,0,0,0
FA0011159,PR0012916,DAI2XCU2V,"Inspection, Routine","1,007","Limited Food Service (convenience, other)",Very Low Risk (1),Food - Restaurants,Arapahoe,Tri-County Health Department,Dutch Bros Coffee,14505 E Arapahoe Rd,Aurora,CO,80016-1581,39.59564,-104.8201,3/9/2020,0,0,0,0,0,0,0,0,0,0,0,0,0,0,0,0,0,0,0,0,0,1,0,0,0,0,0,0,0,1,0,0,0,0,0,0,0,0,0,0,0,0,0,0,0,0,0,0,0,0,0,0,0,0,0,0,0,0
FA0001478,PR0003049,DA08MZWR6,"Inspection, Routine","1,025",Restaurant (0 - 100 seats),Med Risk (3),Food - Restaurants,Adams,Tri-County Health Department,Chipotle Mexican Grill,3455 Salida St Unit D,Aurora,CO,80011,39.764488,-104.7748,3/4/2020,0,0,0,0,0,0,0,1,0,0,0,0,0,0,0,0,0,0,0,0,0,0,0,0,0,0,0,0,0,1,0,0,0,0,0,0,0,0,0,0,0,0,0,0,0,0,0,0,0,0,0,0,0,0,0,0,0,0
FA0001475,PR0002542,DAEIJYE5S,"Inspection, Routine","1,025",Restaurant (0 - 100 seats),Med Risk (3),Food - Restaurants,Douglas,Tri-County Health Department,Chipotle Mexican Grill,2209 W Wildcat Reserve Pkwy,Littleton,CO,80129,39.53503514,-105.0147,3/11/2020,0,0,0,0,0,0,0,0,0,1,0,0,0,0,0,0,0,0,0,0,0,0,0,0,0,0,0,0,0,1,0,0,0,0,0,0,0,0,0,0,0,0,0,1,0,0,0,0,0,0,0,0,0,0,0,0,0,1
FA0002097,PR0002130,DAEGSVI54,"Inspection, Routine","1,265","Grocery Store w/ Deli (>15,000 sq. ft.)",Med Risk (3),Food - Grocery,Douglas,Tri-County Health Department,King Soopers 91,7284 Lagae Rd,Castle Rock,CO,80108,39.46754945,-104.8812,3/2/2020,0,0,0,0,0,1,0,0,0,0,0,0,1,0,1,1,0,0,0,0,1,0,0,0,0,0,0,0,0,5,0,0,0,0,0,0,0,0,0,0,0,0,0,0,0,0,0,1,0,0,0,0,0,0,0,1,0,2
FA0005451,PR0000821,DAWDURGML,"Inspection, Routine","1,007","Limited Food Service (convenience, other)",Low Risk (2),Food - Restaurants,Arapahoe,Tri-County Health Department,Starbucks Coffee 277,960 S Colorado Blvd,Glendale,CO,80246,39.698972,-104.9406,3/12/2020,0,0,0,0,0,0,0,0,0,0,0,0,0,0,0,0,0,0,0,0,0,0,0,0,0,0,0,0,0,0,0,0,0,0,0,0,0,0,0,0,0,0,0,0,0,0,0,0,0,0,0,0,0,0,0,0,0,0
FA0000376,PR0004623,DAAYYTERN,"Inspection, Routine","1,025",Restaurant (0 - 100 seats),Med Risk (3),Food - Restaurants,Arapahoe,Tri-County Health Department,Alpine Adult Daycare,1985 S Havana St,Aurora,CO,80014,39.680523,-104.866,3/5/2020,0,1,0,0,0,0,0,0,0,0,0,0,0,0,0,0,0,0,0,0,0,0,0,0,0,0,0,0,0,1,0,0,0,0,0,0,0,0,0,0,0,0,0,0,0,0,0,0,0,0,0,0,0,0,0,0,0,0
FA0005469,PR0011000,DATIPTAMU,"Inspection, Routine","1,025",Restaurant (0 - 100 seats),Med Risk (3),Food - Restaurants,Arapahoe,Tri-County Health Department,Bibi Poke at Centennial,12023 E Arapahoe Rd Ste 140,Centennial,CO,80112,39.595169,-104.8492,3/11/2020,1,1,0,0,0,0,0,0,0,1,0,0,0,1,1,1,0,0,0,0,0,0,1,1,1,0,0,1,0,10,0,0,0,0,0,1,0,0,0,0,0,0,0,0,0,0,0,0,0,0,0,0,0,0,0,0,0,1
FA0007977,PR0007761,DAVGSDTBO,"Inspection, Routine","1,025",Restaurant (0 - 100 seats),Med Risk (3),Food - Restaurants,Arapahoe,Tri-County Health Department,Subway - Belleview 10349,4940 S Yosemite St Unit E3,Greenwood Village,CO,80111,39.626436,-104.8851,3/5/2020,0,1,0,0,1,0,0,0,0,0,0,0,0,0,0,1,0,0,0,0,0,0,0,0,0,0,0,0,0,3,0,0,0,0,0,0,0,0,0,0,0,0,0,0,0,0,0,0,0,0,0,0,0,0,0,1,0,1
FA0005288,PR0005021,DAEDOVTE6,"Inspection, Routine","1,025",Restaurant (0 - 100 seats),Med Risk (3),Food - Restaurants,Adams,Tri-County Health Department,Subway Sandwiches,10343 Federal Blvd Unit A,Westminster,CO,80030,39.885334,-104.9916,3/3/2020,0,0,0,0,0,0,0,1,0,1,0,0,0,0,0,0,0,0,1,0,0,0,0,0,0,0,0,0,0,3,0,0,0,0,0,0,0,0,0,0,0,0,0,0,0,0,0,1,0,1,0,1,0,0,0,0,0,3
FA0003381,PR0005422,DANWNURZJ,"Inspection, Routine","1,025",Restaurant (0 - 100 seats),Med Risk (3),Food - Restaurants,Adams,Tri-County Health Department,Yareths Mexican Fast Food,4403 W 52nd Ave,Denver,CO,80212,39.833263,-104.9084,3/3/2020,0,0,0,0,0,0,0,0,0,1,0,0,0,0,0,0,0,0,0,0,0,0,1,0,0,0,0,0,0,2,0,0,0,0,0,0,0,0,0,0,0,0,0,0,0,0,0,1,0,0,0,0,0,0,0,0,0,1
FA0001413,PR0000506,DASYRKZZK,"Inspection, Routine","1,005","No fee license (K-12 schools, non-profit)",Med Risk (3),Food - Institutions,Arapahoe,Tri-County Health Department,Trails West Elementary,5400 S Waco St,Aurora,CO,80015,39.618988,-104.7803,3/9/2020,0,0,0,0,0,0,0,0,0,0,0,0,0,0,0,0,0,0,0,0,0,0,0,0,0,0,0,0,0,0,0,0,0,0,0,0,0,0,0,0,0,0,0,0,0,0,0,0,0,0,0,0,0,0,0,0,0,0
FA0006153,PR0004644,DAHZUS4Y2,"Inspection, Routine","1,025",Restaurant (0 - 100 seats),Med Risk (3),Food - Restaurants,Douglas,Tri-County Health Department,Viet Pho LLC,9231 E Lincoln Ave Ste 400,Lone Tree,CO,80124,39.53634759,-104.8821,3/9/2020,0,1,0,0,0,1,0,1,0,0,0,0,0,0,1,0,0,0,0,0,0,1,0,0,0,0,0,0,0,5,0,0,0,0,0,0,0,0,1,1,0,1,0,1,0,0,0,1,0,1,0,0,0,1,0,1,0,8
FA0000373,PR0012943,DAH08M9I4,"Inspection, First Operational","1,025",Restaurant (0 - 100 seats),Med Risk (3),Food - Restaurants,Adams,Tri-County Health Department,Taqueria El Ayudante,8623 Washington St,Thornton,CO,80229,39.98671,-104.7991,3/2/2020,0,1,0,0,0,0,0,0,0,0,0,0,0,0,1,0,0,0,0,0,0,0,0,0,0,0,0,1,0,3,0,0,0,0,0,0,0,0,0,1,0,0,0,1,0,0,0,0,0,0,0,0,0,0,0,0,0,2
FA0011200,PR0012986,DAU9IBQCH,"Inspection, First Operational","1,025",Restaurant (0 - 100 seats),Low Risk (2),Food - Restaurants,Adams,Tri-County Health Department,Lizzies Axe Throwing,345 S Main St,Brighton,CO,80601-1615,39.98115,-104.8228,3/6/2020,0,0,0,0,0,0,0,0,0,0,0,0,0,0,0,0,0,0,0,0,0,0,0,0,0,0,0,0,0,0,0,0,0,0,0,0,0,0,0,0,0,0,0,0,0,0,0,0,0,0,0,0,0,0,1,0,0,1
FA0004443,PR0002847,DAU1IJWHR,"Inspection, Routine","1,065",Restaurant (>200 seats),Med Risk (3),Food - Restaurants,Arapahoe,Tri-County Health Department,PF Changs China Bistro,23902 E Prospect Ave,Aurora,CO,80016,39.60014725,-104.7101,9/12/2019,0,0,0,0,0,0,0,1,0,1,0,0,0,0,0,0,0,0,0,0,0,1,0,1,0,0,0,0,0,4,0,0,0,0,0,0,0,0,0,0,0,1,0,0,0,0,0,0,0,0,0,1,0,0,0,0,0,2
FA0010497,PR0011821,DAEFHV3YF,"Inspection, Routine","1,025",Restaurant (0 - 100 seats),Med Risk (3),Food - Restaurants,Arapahoe,Tri-County Health Department,Delicias del Barrio,3133 Peoria St Unit 202,Aurora,CO,80010-1518,39.76031189,-104.8469,3/4/2020,1,1,0,0,1,1,0,1,1,1,0,0,1,0,1,1,0,0,0,0,1,1,1,0,0,0,0,1,0,14,0,0,0,0,0,0,0,1,0,0,0,0,0,1,0,0,0,0,0,0,0,0,0,0,0,0,1,3
FA0008129,PR0007935,DASMNUEXT,"Inspection, Routine","1,025",Restaurant (0 - 100 seats),Med Risk (3),Food - Restaurants,Arapahoe,Tri-County Health Department,Waters Edge Winery,2101 E Arapahoe Rd Unit 101,Centennial,CO,80122,39.595178,-104.9641,5/7/2019,0,1,0,0,1,1,0,0,0,1,0,0,0,0,0,0,0,0,0,0,0,1,0,0,0,0,0,0,0,5,0,0,0,0,0,0,0,0,0,0,0,0,0,0,1,0,0,0,0,0,0,0,0,0,0,0,0,1
FA0004222,PR0011332,DAFMYMCYF,"Inspection, Routine","1,025",Restaurant (0 - 100 seats),Med Risk (3),Food - Restaurants,Arapahoe,Tri-County Health Department,Cafe One,5251 DTC Pkwy Ste P3,Greenwood Village,CO,80111,39.620591,-104.8985,3/2/2020,0,0,0,0,0,0,0,0,0,0,0,0,0,0,1,0,0,0,0,0,0,1,1,0,0,0,0,0,0,3,0,0,0,0,0,0,0,0,0,0,0,0,0,0,0,0,0,0,0,1,0,0,0,0,0,0,1,2
FA0006458,PR0003349,DAOUDED03,"Inspection, Routine","1,025",Restaurant (0 - 100 seats),Med Risk (3),Food - Restaurants,Arapahoe,Tri-County Health Department,Sonic Drive In,11237 E Arapahoe Pl,Centennial,CO,80112,39.595013,-104.8581,3/11/2020,0,0,0,0,0,0,0,1,0,1,0,0,0,0,0,0,0,0,0,0,0,1,0,0,0,0,0,1,0,4,0,0,0,0,0,0,0,0,0,0,0,0,0,0,1,0,0,1,0,1,0,1,0,0,0,0,0,4
FA0003714,PR0000714,DATRMY7ID,"Inspection, Routine","1,025",Restaurant (0 - 100 seats),Med Risk (3),Food - Restaurants,Arapahoe,Tri-County Health Department,Majestic Sports Bar and Restaurant,3140 S Parker Rd Ste 1,Aurora,CO,80014-3160,39.65984,-104.8483,3/12/2020,0,1,0,0,0,1,0,0,0,1,0,0,1,0,0,1,0,0,0,0,0,1,0,0,0,0,0,0,0,6,0,0,0,0,0,0,0,0,0,0,0,1,0,0,0,0,0,0,0,0,0,1,0,0,0,1,1,4
